stop_id,stop_name,stop_lat,stop_lon,location_type,parent_station
"1100008","Zell (Wiesental), Wilder Mann","47.7100842702352","7.85964788274668","",""
"1100009","Zell (Wiesental), Grönland","47.7131911044794","7.86290876722849","",""
"1100010","Atzenbach","47.7146175266411","7.8723500608659","",""
"1100011","Mambach, Brücke","47.7282088873189","7.8774704579861","",""
"1100012","Mambach, Mühlschau","47.7340818684375","7.8813871126254","",""
"1100013","Mambach, Silbersau","47.7395192233867","7.88223152899259","",""
"1100014","Fröhnd (Schwarzw), Wühre","47.7543663509316","7.88913059037559","",""
"1100015","Fröhnd (Schwarzw), Unterkastel","47.7605926689054","7.88553732923861","",""
"1100016","Wembach (Baden)","47.7728317637339","7.88772023537933","",""
"1100017","Schönau (Schw), Brand","47.7774561479519","7.89219384549486","",""
"1100018","Schönau (Schw), Sparkasse","47.786208751796","7.89383776246503","",""
"1100019","Schönau (Schw), Friedhof","47.7896429916744","7.89809577691235","",""
"1100020","Schönau (Schw), Schönenbuchen","47.7936261842555","7.90221904406703","",""
"1100021","Aitern, Abzweigung","47.7983935436501","7.90542602963179","",""
"1100022","Utzenfeld, Reiterhof","47.7995943664784","7.90894742554602","",""
"1100023","Utzenfeld, Wiese","47.8015132116772","7.91649327393368","",""
"1100024","Utzenfeld, Engel","47.8024303705115","7.9218741824863","",""
"1100025","Geschwend (Baden), Mättlestr.","47.8038905505064","7.93667841837065","",""
"1100026","Geschwend (Baden), Unterdorf","47.8061350446744","7.93714554231846","",""
"1100027","Schlechtnau","47.8182246834617","7.9391218359438","",""
"1100028","Todtnau, Busbahnhof","47.8286289299227","7.94193356278349","",""
"1100029","Todtnau, Schönauerstrasse","47.8291475798111","7.94670361694282","",""
"1100030","Todtnau, Poche","47.8320060920024","7.96007953152523","",""
"1100031","Brandenberg (D), Siedlung","47.836715660006","7.97257509712907","",""
"1100032","Brandenberg (D), Hirschen","47.8427090374506","7.97471308750557","",""
"1100033","Brandenberg (D), Wiesenstrasse","47.8448493616014","7.98182774455679","",""
"1100034","Fahl, Lawine","47.852517628945","7.99623672171607","",""
"1100035","Fahl, Skilift","47.8564116136257","8.00476173376355","",""
"1100036","Fahl, Todtnauerhütte","47.8585815091623","7.99809623435446","",""
"1100037","Feldberg, Hebelhof","47.8565924417223","8.02769572297031","",""
"1100038","Feldberg, Feldbergerhof","47.8605584460329","8.03583445944557","",""
"1100039","Feldberg, Caritas-Haus","47.858485071289","8.05270482048368","",""
"1100040","Feldberg, Kohlplatz","47.8612816967848","8.06807499499711","",""
"1100041","Bärental, Altes Rathaus","47.8704902074618","8.09094610213397","",""
"1100043","Bärental, Bahnhofstrasse","47.869953892743","8.09592276880869","",""
"1100044","Bärental, Bären","47.8716592337942","8.0937668121265","",""
"1100045","Bärental, Behabühl","47.8741719485561","8.09961484462693","",""
"1100046","Bärental, Löffelschmiede","47.8786668129806","8.1079242610062","",""
"1100047","Hinterzarten, Heizmannshof","47.8882155992228","8.12200086151031","",""
"1100048","Titisee, Feuerwehrheim","47.8887637726371","8.12924128270132","",""
"1100049","Titisee, Abzw. Bühlhof","47.8947872741158","8.14066785311691","",""
"1100050","Titisee, Freibad","47.8993405761823","8.1452582442194","",""
"1100051","Titisee, Kurhaus","47.9008582545542","8.15021694458843","",""
"1100052","Titisee, Bahnhof","47.8939741423241","8.18473021780911","",""
"1100053","Todtnau, Sonnhalde","47.8340564046176","7.93820555435387","",""
"1100054","Aftersteg","47.842624628491","7.92925833412279","",""
"1100055","Todtnauberg, Hangloch","47.8453738782722","7.93748690212647","",""
"1100056","Todtnauberg, Sternen","47.8496240763507","7.9388882739699","",""
"1100057","Todtnauberg, Rathaus","47.8518063122317","7.94109812956914","",""
"1100058","Muggenbrunn, Grüner Baum","47.8574784902796","7.91768803326172","",""
"1100059","Muggenbrunn, Säge","47.8649219056949","7.9170053136457","",""
"1100060","Halde, Notschrei","47.8758831761535","7.91030388162523","",""
"1100061","Halde, Haldenköpfle","47.8851854810654","7.89583202239605","",""
"1100062","Halde, Schauinsland","47.8908178653638","7.89224774441192","",""
"1100063","Hofsgrund, Plätzle","47.8992020557025","7.89714356271105","",""
"1100064","Hofsgrund, Hof","47.9023758884348","7.90049427872128","",""
"1100065","Hofsgrund, Hansenhof","47.9037670137411","7.91749040389919","",""
"1100066","St. Wilhelm, Steinwasen","47.8980818329873","7.92304199235582","",""
"1100067","St. Wilhelm, Hohe Brücke","47.9036525935901","7.93171971800163","",""
"1100068","Oberried (D), Schneeberg","47.9125645637013","7.93377686000254","",""
"1100069","Oberried (D), Hintertal","47.9239672383378","7.93828640272945","",""
"1100070","Oberried (D), Surenhof","47.928523993001","7.94095439912366","",""
"1100071","Oberried (D), Adler","47.9320691954899","7.94747616808727","",""
"1100072","Oberried (D), Sternen/Post","47.9347113869811","7.95328826797634","",""
"1100073","Oberried (D), Weilersbach","47.9439670201844","7.95371945931277","",""
"1100074","Kirchzarten, Geroldstal","47.9484016745846","7.95246181791483","",""
"1100075","Kirchzarten, Sportplatz","47.9591226996071","7.95459082513849","",""
"1100076","Kirchzarten, Krone","47.9617214009956","7.95289300925127","",""
"1100077","Kirchzarten, Grundschule","47.964307941544","7.95522862899031","",""
"1100078","Kirchzarten, Bahnhof","47.9692941855812","7.95922613200519","",""
"1100079","Lörrach, Busbahnhof","47.614431441776","7.66384210023989","",""
"1100080","Lörrach, Krankenhaus","47.6140620433595","7.65960205209826","",""
"1100081","Lörrach, Weinbrennerstrasse","47.611754758135","7.6589552650936","",""
"1100082","Lörrach, Museum","47.6089749801109","7.65988052983638","",""
"1100083","Lörrach, Schillerstrasse","47.6064070364514","7.6596110352511","",""
"1100084","Lörrach-Stetten, Bahnhof","47.6020642599527","7.65903611346919","",""
"1100085","Lörrach-Stetten, Dammstrasse","47.5989326339413","7.6565837127432","",""
"1100086","Stetten (LÖ), Grenze","47.5957462998186","7.65582014475159","",""
"1100087","Herten (Baden), Markhof","47.5499955765311","7.71594438672608","",""
"1100088","Herten (Baden), St. Josefshaus","47.5552035623714","7.72918555401584","",""
"1100089","Ibach (D), Ibacher Kreuz","47.7429082206951","8.06719464601855","",""
"1100090","Ibach (D), Abzw. Lindau","47.7452399160344","8.03415460986403","",""
"1100091","Ibach (D), Abzw. Ibach","47.747070163298","8.04577880964216","",""
"1100093","Ibach (D), Ibacher Kluse","47.751896150283","8.09997417074063","",""
"1100094","Ibach (D), Unteribach Kirche","47.7342691645502","8.06816482652553","",""
"1100095","Ibach (D), Sägewerk","47.7435727041011","8.06000812374459","",""
"1100096","Ibach (D), Schaltenbuck","47.7438928612598","8.05121361711184","",""
"1100097","Schopfheim, Busbahnhof","47.6478542205477","7.82141558424923","",""
"1100098","Schopfheim, Friedhof","47.6479510495583","7.81501957942541","",""
"1100099","Gündenhausen","47.6475637324386","7.8036738573854","",""
"1100100","Maulburg, Firma Busch","47.6476060953885","7.78829469971914","",""
"1100101","Maulburg, Blostweg","47.6465106995002","7.78567161908914","",""
"1100102","Maulburg, Bahnhof","47.6394838845772","7.80322469974328","",""
"1100103","Maulburg, Rathaus","47.6413299524725","7.77917679958405","",""
"1100104","Maulburg, Berghöfe","47.6278006966372","7.77175671533619","",""
"1100105","St. Blasien, Busbahnhof","47.7611361530586","8.12710329232482","",""
"1100106","St. Blasien, Schwimmbad","47.7689133931257","8.11999761842644","",""
"1100107","St. Blasien, Glashof","47.7826173443624","8.09842906845173","",""
"1100108","Minseln, Schlossstrasse","47.6085994867853","7.78031765999504","",""
"1100109","Minseln, Adler","47.6075153860899","7.78498889947312","",""
"1100110","Minseln, Feuerwehrhaus","47.6031121316344","7.79066625206954","",""
"1100111","Menzenschwand, Abzw M. Brücke","47.7923286626245","8.08346313581622","",""
"1100112","Bernau (Schw), Weierle Strasse","47.7945193431096","8.069278737478","",""
"1100113","Bernau (Schw), Weierle","47.8084639065245","8.0335347723179","",""
"1100114","Unterlehen (Schw)","47.7915863449829","8.06217306357962","",""
"1100115","Bernau (Schw), Gass","47.7970056233922","8.05836420677442","",""
"1100116","Oberlehen (Schw), Thomahaus","47.7882488021435","8.04705441734578","",""
"1100117","Bernau (Schw), Schwendele","47.8058816388993","8.01014264231618","",""
"1100118","Innerlehen (Schw), Rathaus","47.8023458960327","8.03427139085098","",""
"1100119","Bernau (Schw), Altenrond","47.7977538980503","8.05210294924324","",""
"1100120","Riggenbach (Schw)","47.8015675175855","8.04613813575586","",""
"1100121","Riggenbach (Schw), Haus Kaiser","47.8021286753137","8.04994699256105","",""
"1100122","Menzenschwand, Mitteldorf","47.8239608476907","8.07089570498963","",""
"1100123","Menzenschwand, Vorderdorf","47.8174887679432","8.07015908645655","",""
"1100124","Menzenschwand, Hinterdorf","47.8292681953214","8.07003332231676","",""
"1100125","Bernau (Schw), Poche","47.8072632887144","8.02164107795451","",""
"1100126","Bernau (Schw), Goldbach","47.7957866367598","8.06715871340718","",""
"1100127","Rheinfelden (D), Haberbusch","47.5638783476125","7.77956307515628","",""
"1100128","Nollingen, Holbeinstrasse","47.5675454523646","7.77693101137344","",""
"1100129","Nollingen, Hebelhalle","47.5704062219308","7.77475708838557","",""
"1100130","Nollingen, Dürerstrasse","47.5733456211078","7.77357131221037","",""
"1100131","Nollingen, Sonne","47.5730607793347","7.77012178151887","",""
"1100132","Degerfelden, Wolfsgraben","47.5700971208845","7.75613501254318","",""
"1100133","Herrenschwand, Ort","47.7676575200426","7.95303673969675","",""
"1100134","Herrenschwand, Milchhäusle","47.7756873393726","7.96766131252425","",""
"1100135","Degerfelden, Sägemühle","47.577751380566","7.73161998843615","",""
"1100136","Degerfelden, Hagenbach","47.5885248397423","7.7285836827754","",""
"1100137","Inzlingen, Waidhof","47.6005014990305","7.70255050583799","",""
"1100138","Lörrach, Ufhabiweg","47.6096835650106","7.67508900759864","",""
"1100139","Lörrach, Wallbrunnstrasse","47.6097683523042","7.67021115560519","",""
"1100140","Lörrach, Engelplatz","47.6105253756191","7.66459668507866","",""
"1100141","Lörrach, Kinderspielplatz","47.6131415638216","7.666572978704","",""
"1100142","Lörrach, Untereckstrasse","47.6161875624907","7.67005844200687","",""
"1100143","Endenburg, Rathaus","47.7130279096243","7.73619241323295","",""
"1100144","Endenburg, Schule","47.7122179720406","7.74328012082564","",""
"1100145","Kirchhausen (Kr LÖ)","47.713656509222","7.75645840604551","",""
"1100146","Steinen (Kr LÖ), Lehnacker","47.7106947717415","7.76112964552358","",""
"1100147","Aitern, Belchenbahn Talstation","47.8214698258353","7.85085337611393","",""
"1100148","Hofen (Kr LÖ), Im Steinenberg","47.6943961603117","7.74601998244259","",""
"1100149","Hofen (Kr LÖ), Pflug","47.6923463822609","7.74809509074919","",""
"1100150","Schlächtenhaus, Schule","47.6898550981112","7.74233688977719","",""
"1100151","Schlächtenhaus","47.6904960709378","7.73824955523387","",""
"1100152","Hofen (Kr LÖ), Kirche","47.6893108697161","7.74922696800734","",""
"1100153","Weitenau (Baden), Vogelpark","47.6858458157576","7.75738367078828","",""
"1100154","Weitenau (Baden), Schule","47.6777658429854","7.76590868283576","",""
"1100155","Weitenau (Baden), Aussendorf","47.6712211155146","7.75781486212472","",""
"1100156","Steinen (Kr LÖ), Kandernerstr.","47.6476968730225","7.74275011480794","",""
"1100157","Steinen (Kr LÖ), Schule","47.6431275362275","7.74326215451996","",""
"1100158","Steinen (Kr LÖ), Bahnhof","47.6378980299067","7.76209982603057","",""
"1100159","Steinen (Kr LÖ), Rathaus","47.6425465058195","7.74099840000366","",""
"1100160","Utzenfeld, Königshütte","47.8203117313888","7.8979161138555","",""
"1100161","Utzenfeld, Finstergrund","47.8310834248962","7.89692796704283","",""
"1100162","Wieden (Schw), Wiedenmatt","47.8399294987928","7.89318199230753","",""
"1100163","Wieden (Schw), Hirschen","47.8410931849438","7.8807313424679","",""
"1100164","Wieden (Schw), Hüttbach Rütte","47.8448433326434","7.88531275041755","",""
"1100165","Wieden (Schw), Ungendwieden","47.8439872134809","7.89159197425442","",""
"1100166","Wieden (Schw), Wiedenrütte","47.8473874907066","7.88386646280992","",""
"1100167","Wieden (Schw), Wiedener Eck","47.8447287823067","7.86688830393769","",""
"1100168","Wieden (Schw), Skilift/Holzpl.","47.8365347625992","7.86893646278577","",""
"1100169","Wieden (Schw), Hohtann","47.8296963781191","7.85899211258918","",""
"1100170","Aitern, Obermulten","47.8230259745661","7.85449155301512","",""
"1100171","Aitern, Multen","47.8214698258353","7.85085337611393","",""
"1100172","Aitern, Holzinshaus","47.8091154864814","7.88146796100098","",""
"1100173","Aitern, Rössle","47.8026777592662","7.89588592131311","",""
"1100174","Aitern, Am Schadenrain","47.8013864976705","7.89938935092166","",""
"1100175","Schopfheim, Dreistern","47.644749545247","7.81641196811599","",""
"1100176","Wiechs (LÖ), Post","47.6356160095233","7.81288158904891","",""
"1100177","Wiechs (LÖ), An der Halden","47.6328375000331","7.81226175150278","",""
"1100178","Herrenschwand, Hochkopfhaus","47.7624284148004","7.97580004899951","",""
"1100179","Todtnau, Präg Hinterdorf","47.8267894902765","7.97278170964444","",""
"1100180","Wiechs (LÖ), Rebacker","47.6368266428282","7.81535195608058","",""
"1100181","Wiechs (LÖ), Am Rain","47.6325348212306","7.8130702352586","",""
"1100182","Schopfheim, Ebertschule","47.6510978946848","7.82791040375432","",""
"1100183","Todtmoos, Schule","47.7335501854795","8.00316273255759","",""
"1100184","Endenburg, Oberdorf","47.7099996456997","7.73294949505683","",""
"1100185","Kandern, Platzhof Jugendherb.","47.7007747475528","7.71273740116133","",""
"1100186","Kandern, Scheideck","47.7017964582097","7.70512867070378","",""
"1100187","Wieslet, Schule","47.6887001177547","7.79720598733884","",""
"1100188","Weitenau (Baden), Fahrnbuck","47.6838259398874","7.77206214253284","",""
"1100189","Weitenau (Baden), Schillighof","47.6850777883402","7.77917679958405","",""
"1100190","Tegernau (Bd), Niedertegernau","47.7030660115997","7.79923617988124","",""
"1100191","Tegernau (Baden)","47.7195069571214","7.79429544581789","",""
"1100192","Steinen (Kr LÖ), Kirchstrasse","47.6443440477138","7.73920176943517","",""
"1100193","Steinen (Kr LÖ),Steinenbachbr.","47.6474184877783","7.73896820746127","",""
"1100194","Hägelberg, Untere Dorfstrasse","47.6590428348329","7.7280536767577","",""
"1100195","Hägelberg, Mittlere Dorfstasse","47.6620801086597","7.7285836827754","",""
"1100196","Steinen (Kr LÖ), Hüsingen","47.6314996464761","7.74147450710431","",""
"1100197","Höllstein (D), Friedrichstr.","47.6404281110602","7.74809509074919","",""
"1100198","Höllstein (D), Neue Strasse","47.6401920560393","7.75333226885634","",""
"1100199","Höllstein (D), Schule","47.6391630857986","7.74817593912478","",""
"1100201","Schopfheim, Im Grund","47.6547649403479","7.83313859870863","",""
"1100202","Fahrnau, Werderstrasse","47.6575180809581","7.83543828583629","",""
"1100203","Fahrnau, Ost","47.660845859334","7.83953460353245","",""
"1100204","Fahrnau, Silberbrünnle","47.6598778002288","7.85149117996574","",""
"1100205","Kürnberg","47.6648328635535","7.86814594533564","",""
"1100206","Sattelhof (Baden), Abzweigung","47.6674281852132","7.88015642068599","",""
"1100207","Glashütten (Hasel), Abzweigung","47.6761388108843","7.89399047606335","",""
"1100208","Schopfheim, Abzw. Schweigmatt","47.6877144336623","7.89223876125908","",""
"1100209","Schopfheim, Auerhahn","47.6945049958317","7.89790713070266","",""
"1100210","Schopfheim, Eckhag","47.6985317503796","7.89956003082567","",""
"1100211","Gersbach (Baden), Ebnet","47.6991968000369","7.92445234735209","",""
"1100213","Todtnau, Präg Rathaus","47.8285625906096","7.97813566873854","",""
"1100214","Todtnau, Präg Hirschen","47.8267834592196","7.97411121626513","",""
"1100215","Langenau (LÖ), Friedhof","47.6557693996757","7.79853549395952","",""
"1100216","Langenau (LÖ), Rathaus","47.6603860334972","7.79949669131367","",""
"1100217","Langenau (LÖ), Inselstrasse","47.6644940707847","7.8008800968514","",""
"1100218","Schopfheim, Enkenstein","47.6803544734951","7.80844391154474","",""
"1100219","Wieslet, Sparkasse","47.6889117652838","7.79943380924377","",""
"1100220","Sallneck, Abzweigung","47.7214710614418","7.78802520513386","",""
"1100221","Schwand (Tegernau), Abzweigung","47.7240091788861","7.78108122798665","",""
"1100222","Wies (Schwarzw), Stauweiher","47.7282028448163","7.77296045781708","",""
"1100223","Wies (Schwarzw), Abzw. Demberg","47.736166254947","7.76934024722158","",""
"1100224","Wies (Schwarzw)","47.7478251970482","7.76875634228682","",""
"1100225","Tegernau (Bd), Besengasse","47.7261846096989","7.79805938685888","",""
"1100226","Elbenschwand, Holl","47.7368912393923","7.81078851443662","",""
"1100227","Langensee (Kr LÖ), Ort","47.7420625022746","7.81845114381123","",""
"1100228","Langensee (Kr LÖ), Ost","47.7454211315053","7.82325713058194","",""
"1100229","Elbenschwand, Abzweigung","47.7494499925319","7.82375120398827","",""
"1100230","Bürchau, Haus 42","47.7622834898481","7.82796430267138","",""
"1100231","Bürchau, Kastel","47.7677360129987","7.82470341818957","",""
"1100232","Bürchau, Gemeindezentrum","47.7752828593333","7.82713785260987","",""
"1100233","Bürchau, Sägemättle","47.7818869605566","7.8249010475521","",""
"1100234","Neuenweg (Kr LÖ)","47.7954245560136","7.82726361674967","",""
"1100235","Heubronn, Vorderheubronn","47.7989245642031","7.81243243140679","",""
"1100236","Heubronn, Mittelheubronn","47.8013382255866","7.80814746750094","",""
"1100237","Neuenweg (Kr LÖ), Haldenhof","47.803226837415","7.79217542174707","",""
"1100238","Gündenhausen, Würth Elektronik","47.650359613429","7.79997279841432","",""
"1100239","Schwand (Tegernau), Unterdorf","47.7344806270935","7.79038777433143","",""
"1100240","Schwand (Tegernau), Schwand","47.736758326333","7.79121422439293","",""
"1100241","Raich, Oberdorf","47.7507183849774","7.79526562632487","",""
"1100242","Oberhäuser (Baden), Abzweigung","47.7548313878157","7.79872414016922","",""
"1100244","Hohenegg (Baden), Raich","47.7486466613276","7.81143530144128","",""
"1100245","Hohenegg (Baden), Burstel","47.7440076341013","7.80913561431361","",""
"1100247","Todtmoos, Prestenberg","47.7649464213966","8.00597445939728","",""
"1100248","Todtmoos, Abzw. Rütte","47.7602484593384","8.00870533786138","",""
"1100249","Todtmoos, Im Bühl","47.7561721202434","8.00605530777286","",""
"1100250","Wyhlen, Rührberg","47.5692425379097","7.70138269596847","",""
"1100251","Wyhlen, Himmelspforte","47.553021000341","7.69248039150161","",""
"1100252","Wyhlen, Klosterstrasse","47.5512203182322","7.69145631207757","",""
"1100253","Grenzach, Hebelstrasse","47.5551065615448","7.65962001840395","",""
"1100254","Grenzach, Im Proli","47.5578528280219","7.66234191371521","",""
"1100255","Grenzach, Erlenweg","47.5591986279144","7.66387803285126","",""
"1100257","Grenzach, Neufeld","47.5617507030447","7.67130710025197","",""
"1100258","Oberlehen (Schw),Abz. Todtmoos","47.7882125889301","8.04725204670832","",""
"1100259","Schopfheim, Hebelstr./Vicemoos","47.6460749555226","7.82668869496775","",""
"1100260","Ibach (D), Sonnenhalde","47.7434700117652","8.0604752476924","",""
"1100261","Ibach (D), Rathaus","47.7433129525067","8.06687125251622","",""
"1100262","Bernau (Schw), Hof","47.8207520515921","8.01567626446712","",""
"1100263","Bernau (Schw), Dorf Schulhof","47.8096403643907","8.03132491671866","",""
"1100264","Bernau (Schw), Rotes Kreuz","47.772052943162","8.02013190827697","",""
"1100265","Bernau (Schw), Loipenzentrum","47.7829614059053","8.04206876751823","",""
"1100266","Rheinfelden (D), Realschule","47.5645329900947","7.7863812881637","",""
"1100267","Rheinfelden (D), Gymnasium","47.5602837296817","7.78033562630073","",""
"1100268","Todtmoos, Auf dem Köpfle","47.742207483551","8.00899279875234","",""
"1100269","Dossenbach, Abzw Wehr","47.616157285047","7.85689903797689","",""
"1100270","Dossenbach, Süd","47.6138985383092","7.86050128226672","",""
"1100271","Dossenbach, Niederdossenbach","47.6037057143727","7.87058936290878","",""
"1100272","Schwörstadt, Haus Thoma","47.591299646146","7.86638524737852","",""
"1100273","Schwörstadt, Feuerwehrhaus","47.5924931311629","7.87432635449124","",""
"1100274","Schwörstadt, Oberdorf","47.5939652604671","7.88162067459931","",""
"1100275","Wehr (D), Zelgschule","47.6366450496206","7.90200344839881","",""
"1100276","Wehr (D), Flienken","47.6331462306054","7.89924562047618","",""
"1100277","Todtmoos, Busbahnhof","47.7399843929423","8.00403409838331","",""
"1100278","Todtmoos, Höfle","47.7469251955646","8.00205780475797","",""
"1100279","Todtmoos, Hintertodtmoos","47.7491781901289","8.00164457972722","",""
"1100280","Todtmoos, Strick","47.7502653912241","7.99904844855575","",""
"1100281","Todtmoos, Weg","47.7543059562262","7.98909511520633","",""
"1100282","Todtmoos, Mooslift","47.7499935930795","7.98839442928461","",""
"1100283","Todtmoos, Lehen","47.7473419767098","7.98163011519425","",""
"1100284","Bernau (Schw), Dorf","47.8092180492485","8.03167525967952","",""
"1100285","Todtmoos, Tännlemühle","47.7583884805234","7.98338182999853","",""
"1100286","St. Blasien, Hasenmatt","47.759463411455","8.12047372552709","",""
"1100287","St. Blasien, Ziegelfeld","47.7558701564946","8.11480535608351","",""
"1100288","Grenzach, Bürgelerweg","47.556397870333","7.66156037941791","",""
"1100290","Herten (Baden), Eigenstrasse","47.5533605159606","7.73789022912017","",""
"1100291","Zell (Wiesental),Schopfheimstr","47.7069591158738","7.85210203435903","",""
"1100292","Fahrnau, Hirscheneck","47.6610334187097","7.83769305719975","",""
"1100294","Eichsel, Obereichsel","47.5998351914194","7.75752740123376","",""
"1100295","Zell (Wiesental), Schwarznau","47.6998920701537","7.84621806924723","",""
"1100297","Müllheim (D), Feldberg Lohfel.","47.773888284625","7.63741366457742","",""
"1100298","Lörrach, Lucke","47.6323532131077","7.64626207012723","",""
"1100300","Rheinfelden (D), K-Fürstenberg","47.5613688089753","7.78879775627831","",""
"1100301","Oberried (D), Abzw. Halde","47.8933356743386","7.89187045199254","",""
"1100302","Schauinsland, Bergstation","47.9085724316999","7.89238249170455","",""
"1100303","Neuenburg (Baden), Bahnhof","47.810828861431","7.58947057785729","",""
"1100304","Hausen (LÖ), Eisenwerk","47.685652298104","7.84239124613634","",""
"1100305","Hausen (LÖ), Lehacker","47.6827978293184","7.84021732314847","",""
"1100307","Schliengen, Eisenbahnstrasse","47.7598498980473","7.56990527096644","",""
"1100308","Lörrach, Friedhof","47.6204201765713","7.67236711228738","",""
"1100309","Müllheim (D), Eisenbahnstrasse","47.809284413284","7.60589178125328","",""
"1100322","Bad Krozingen, Bahnhof","47.9199639456135","7.69783435059571","",""
"1100327","Müllheim (D), Verkehrsamt","47.8080536482837","7.63028104122052","",""
"1100329","Utzenfeld, Schule","47.8019174876327","7.91821803927943","",""
"1100330","Müllheim (D), Goethestrasse","47.8110701773051","7.62753219645073","",""
"1100355","Herten (Baden), Friedhof","47.5565615550899","7.73648885727675","",""
"1100356","Degerfelden, Lamm B316","47.5737516694675","7.74201349627486","",""
"1100357","Minseln, Kindergarten","47.6014343154296","7.78954335796424","",""
"1100359","Schwörstadt, Unterdorf","47.5907301563935","7.8657474435267","",""
"1100360","Schwörstadt, Kraftwerk","47.5902939472855","7.83540235322492","",""
"1100361","Lörrach, Gewerbeschule","47.6192757696522","7.66130885113832","",""
"1100362","Inzlingen, Wasserschloss","47.5872040286847","7.6967743385603","",""
"1100363","Lörrach, Grabenstr.","47.6132929595957","7.66290785234428","",""
"1100364","Lörrach, Alter Markt","47.6108463501966","7.66071596305072","",""
"1100365","Lörrach, Senser Platz","47.6137047538839","7.66025782225576","",""
"1100366","Lörrach, Homburg Siedlung","47.6234052047696","7.67575376090898","",""
"1100367","Lörrach, Robert Bosch Strasse","47.6249127911464","7.67707428437682","",""
"1100368","Hausen-Raitbach, Bahnhof","47.6734350431096","7.86870290081187","",""
"1100369","Maulburg, Volksbank","47.6457541972163","7.77641897166142","",""
"1100370","Maulburg, Teichmattstrasse","47.6449613710649","7.7719273952402","",""
"1100371","Steinen (Kr LÖ), Egertenstr.","47.6418565238165","7.73391967556381","",""
"1100372","Steinen (Kr LÖ), Schwimmbad","47.641475214063","7.72431668517524","",""
"1100373","Hauingen, Turnhalle","47.6422196733751","7.69452855034969","",""
"1100374","Hauingen, Wiesenbrücke","47.6400286327077","7.69495974168613","",""
"1100375","Brombach (LÖ), Zentrum","47.6342600669215","7.69248039150161","",""
"1100376","Brombach (LÖ), Friedhof","47.6314693778999","7.68696473565635","",""
"1100377","Sallneck, Ort","47.7229214294095","7.77226875504821","",""
"1100378","Raich","47.7548434666405","7.80692575871437","",""
"1100379","Langensee (Kr LÖ),ehem. Schule","47.7412590570489","7.81590891155681","",""
"1100380","Schönau (Schw), Buchen. Schule","47.7824181497967","7.89324487437743","",""
"1100381","Zell (Wiesental), Krankenhaus","47.7037249580753","7.84891301509996","",""
"1100382","Schopfheim, Wehrer Strasse","47.6493187401587","7.8299585626024","",""
"1100383","Schopfheim, Abzw. Eichen","47.6474487471158","7.84548145071415","",""
"1100384","Hasel, Abzweigung","47.6475758361421","7.88850176967662","",""
"1100385","Hasel, Dorfplatz","47.6533610853003","7.89788916439697","",""
"1100386","Lörrach-Brombach, Bahnhof","47.6370748191912","7.69542686563393","",""
"1100387","Schopfheim, Hebelstrasse","47.6484533471703","7.8243710415344","",""
"1100388","Hausen (LÖ), Tor-/Bergwerkstr.","47.6803544734951","7.83886985022211","",""
"1100389","Hausen (LÖ), Autokabel","47.679253716404","7.84342430871323","",""
"1100399","Schopfheim, Schustergasse","47.6609003121254","7.84020833999563","",""
"1100402","Steinen (Kr LÖ), Lörracherstr.","47.6429217553637","7.7301287850643","",""
"1100407","Zell (Wiesental), RB Heizmann","47.708065333137","7.8520750849005","",""
"1100408","Adelsberg","47.7174642100783","7.83629168535632","",""
"1100409","Gresgen, Rathaus","47.7113233994826","7.82176592721009","",""
"1100411","Häg-Ehrsberg, Ehrsberg","47.7431438112368","7.90616264816487","",""
"1100412","Häg-Ehrsberg, Hägermühle","47.7318221783743","7.91858634854597","",""
"1100413","Häg-Ehrsberg, Rohmatt","47.7290246187468","7.9079682618862","",""
"1100414","Mambach, Ort","47.7276408890019","7.87909640865058","",""
"1100415","Inzlingen, Schlossstrasse","47.5900758413681","7.70013403772337","",""
"1100416","Brombach (LÖ), Schöpflin-Siedl","47.6294716131076","7.68284146850167","",""
"1100417","Zell (Wiesental), Schönauerstr","47.7077933146753","7.85370103556498","",""
"1100418","Tegernau (Bd), Hauptschule","47.7265350872764","7.79895770214312","",""
"1100419","Hauingen, Ost","47.6438961811084","7.69870571642143","",""
"1100421","Hasel, Wegscheide","47.6498149730262","7.89336165536438","",""
"1100422","Bad Säckingen, Bahnhof","47.5563675582848","7.94986568674336","",""
"1100423","Bad Säckingen, Gloria-Theater","47.5554945637738","7.941619152434","",""
"1100424","Bad Säckingen, Basler Str.","47.5541486687404","7.93221379140796","",""
"1100425","Bad Säckingen, Jurastrasse","47.5512627592632","7.9269316975366","",""
"1100426","Wallbach (Baden), Kirche","47.5661089477009","7.91466969390666","",""
"1100427","Wallbach (Baden), Bündtenstr.","47.5718426087387","7.91303476008934","",""
"1100428","Wehr-Brennet, Bahnhof","47.5808782146247","7.9107620224202","",""
"1100429","Brennet, Wehratalstrasse","47.5864284910653","7.91201966381814","",""
"1100430","Öflingen, Schule","47.592487072932","7.91403189005485","",""
"1100431","Öflingen, Brühlstr","47.599847306179","7.91578360485913","",""
"1100432","Wehr (D), Hölzle","47.6088599098621","7.91581055431765","",""
"1100433","Wehr (D), Enkendorfstr.","47.6155153991151","7.90807605972031","",""
"1100434","Geschwend (Baden), Ortsmitte","47.8041499996822","7.93991235339394","",""
"1100435","Todtmoos, Mattenhof","47.7525242808806","8.00521987455851","",""
"1100437","Häg-Ehrsberg, Moosmatt","47.7276469315698","7.89715254586389","",""
"1100441","Münstertal (Schw), Lochmatte","47.8721412988291","7.85303628225464","",""
"1100442","Münstertal (Schw), Stohrenstr.","47.8832456304541","7.84504127622487","",""
"1100443","Münstertal (Schw), St.Trudpert","47.8652835018936","7.80180536159418","",""
"1100444","Münstertal (Schw), Münster","47.860781449424","7.79659513294556","",""
"1100445","Münstertal (Schw), Spielweg","47.8771906605614","7.83903154697327","",""
"1100446","Münstertal (Schw), Rotenbuck","47.842172435297","7.79454697409748","",""
"1100447","Münstertal (Schw), A. Rathaus","47.8559896789478","7.79003743137057","",""
"1100448","Münstertal (Schw), Münsterhald","47.8153050883712","7.78685739526435","",""
"1100449","Münstertal (Schw), Krumlinden","47.868977665189","7.80834509686348","",""
"1100450","Münstertal (Schw), Sonne","47.8768231221952","7.82636530146542","",""
"1100453","Auggen, Kronenplatz","47.7876452452924","7.59336028303807","",""
"1100454","Schliengen, Blankenhorn","47.7549219789329","7.57770264763368","",""
"1100455","Müllheim (D), Platanenallee","47.8096041660845","7.61112895936042","",""
"1100456","Müllheim (D), Kaiserbrunnen","47.8100204450827","7.61474018680309","",""
"1100457","Müllheim (D), Amtsgericht","47.8086630012675","7.6259601447033","",""
"1100458","Müllheim (D), Turnhalle","47.8092120161501","7.62153145035198","",""
"1100463","Münstertal (Schw), Neuhäuser","47.8488283210833","7.7912501570043","",""
"1100464","Eimeldingen, Bahnhof","47.6264263883458","7.61688716033243","",""
"1100465","Münstertal (Schw), Neuhof","47.8497506726539","7.86109417035432","",""
"1100468","Auggen, Lettenbuck","47.7975306236755","7.60124749123373","",""
"1100469","Auggen, WG","47.7951047159225","7.59701642624494","",""
"1100470","Mauchen, Berner","47.7635213774783","7.59560607124868","",""
"1100471","Schliengen, Altinger Strasse","47.7530255719754","7.58460170901668","",""
"1100472","Niedereggenen, Oberdorf","47.7555198763505","7.63236513267996","",""
"1100473","Niedereggenen, Unterdorf","47.7543059562262","7.62684049368186","",""
"1100474","Obereggenen, Rathaus","47.7568122775956","7.64716038541147","",""
"1100475","Schliengen, Liel Sonne","47.7395010998134","7.60389752132225","",""
"1100476","Schliengen, Schallsi. Kreuzung","47.767754126741","7.65334079456708","",""
"1100477","Müllheim (D), Vögisheim","47.7931433892938","7.62123500630817","",""
"1100478","Müllheim (D), In den Weihern","47.8021588449123","7.62393893531375","",""
"1100479","Müllheim (D), Feldberg Kirche","47.7735381257936","7.6414740496622","",""
"1100480","Auggen, Rathaus","47.7872046443654","7.59515691360655","",""
"1100481","Kandern, Busbahnhof","47.7140070710886","7.6572394829007","",""
"1100482","Kandern, Blumenplatz","47.7144724685437","7.66180292454466","",""
"1100483","Sitzenkirch, Engel","47.7359850072585","7.67185507257536","",""
"1100484","Kandern, St.Johannisbreite","47.743482093227","7.66280005451017","",""
"1100487","Auggen, Hochhaus","47.7904758662764","7.59472572227012","",""
"1100488","Schliengen, Liel Fambergstr.","47.7416215150769","7.60748179930639","",""
"1100489","Obereggenen, WG","47.7567579249188","7.6422555839595","",""
"1100490","Müllheim (D), Gennenbach","47.772910248881","7.62960730475733","",""
"1100491","Müllheim (D), Bürgerhaus Süd","47.8041258649298","7.62692134205744","",""
"1100492","Müllheim (D), Löfflerbrunnen","47.8095498685779","7.61619545756356","",""
"1100494","Lörrach, Burghof","47.6112702758648","7.65952120372268","",""
"1100501","Münstertal (Schw), Bahnhof","47.8550071606059","7.78106326168097","",""
"1100503","Schopfheim, Berufsakademie","47.6448161191681","7.81127360469011","",""
"1100506","Neuenburg (D), Eichacker","47.7723367008451","7.55298999416411","",""
"1100507","Binzen (Kr LÖ),J.-P.-Hebelstr.","47.6303978590065","7.62071398344331","",""
"1100508","Rheinweiler, Kapellengrün","47.7045833896139","7.5280347955678","",""
"1100509","Lörrach, Fridolin-Engel-Str.","47.6064130930706","7.68760253950816","",""
"1100510","Lörrach, Vorengele","47.6052562660745","7.68944408584086","",""
"1100511","Istein, Sportplatz","47.6599443548669","7.53200534912416","",""
"1100512","Binzen (Kr LÖ), Dreispitz","47.6255424529053","7.60928741302772","",""
"1100513","Märkt, Stauwehr","47.6210377825963","7.57629229263742","",""
"1100514","Weil am Rhein, Rosenauer Str.","47.6073155214974","7.59271349603341","",""
"1100515","Weil am Rhein, Hegenheimerstr.","47.6054440250749","7.5975374491098","",""
"1100516","Weil am Rhein, Rebgartenweg","47.6029667634065","7.59527369459351","",""
"1100517","Weil am Rhein, Atlas Hotel","47.6006711032493","7.59737575235864","",""
"1100518","Weil am Rhein, Steinackerstr.","47.5950072364256","7.59629777401755","",""
"1100519","Weil am Rhein, Schusterinsel","47.5931352996554","7.59405198580693","",""
"1100520","Haltingen, Rennemattenweg","47.6188034674308","7.61309626983292","",""
"1100522","Brombach (LÖ), Hofmattstr.","47.6343811346558","7.69254327357151","",""
"1100523","Schliengen, Liel Krone","47.7391688331848","7.60406820122626","",""
"1100526","Neuenburg (D), Beethovenstr.","47.8095016040799","7.56395842378474","",""
"1100530","Lörrach, Hebelpark","47.6131052287706","7.6637163361001","",""
"1100531","Bad Bellingen, Hofstrasse","47.7302451708003","7.55968244303174","",""
"1100534","Kandern, Holzen Rathaus","47.6941905814875","7.62551997021402","",""
"1100535","Kandern, Abzw. Tal-/Bühlstr.","47.6934770957515","7.62301367057098","",""
"1100536","Müllheim (D), Bahnhofstrasse","47.8072693220391","7.60269377884137","",""
"1100537","Lörrach, Friedrich-Ebert-Str.","47.5980664064175","7.655397936568","",""
"1100539","Lörrach, Freie Waldorfschule","47.5966852587458","7.66218920011688","",""
"1100540","Lörrach, Konrad-Adenauer-Hof","47.5955161008647","7.65874865257823","",""
"1100541","Stetten (LÖ), Struve-Platz","47.5976787195235","7.65919781022035","",""
"1100542","Stetten (LÖ), Pestalozzistr.","47.6002773783266","7.65995239505912","",""
"1100543","Lörrach, Parkplatz","47.5995323215182","7.64043200393248","",""
"1100544","Brombach (LÖ), Hüsinger Str.","47.6320021022805","7.69540889932825","",""
"1100545","Blansingen, Brunnen","47.6918566003583","7.54339598692838","",""
"1100546","Blansingen, Römerstrasse","47.6881014529504","7.5371347293972","",""
"1100547","Efringen-Kirchen, Kapfrain","47.6460931115942","7.57384887506427","",""
"1100548","Eimeldingen, Malzholzweg","47.6337273655585","7.59429453093368","",""
"1100550","Weil am Rhein, Altes Rathaus","47.5925052476225","7.63347006047959","",""
"1100551","Weil am Rhein, Alte Post","47.5916025637023","7.6380874010406","",""
"1100552","Egringen, Abzweigung","47.6579053242558","7.56905187144641","",""
"1100553","Haltingen, Gewerbestrasse","47.6181071166298","7.61319508451419","",""
"1100554","Wittlingen (Baden), Bahnhof","47.6566286206345","7.64710648649442","",""
"1100555","Rümmingen, Altes Rathaus","47.6419473114428","7.64230948287655","",""
"1100556","Fischingen (Bd), Kirchplatz","47.6507711157442","7.59822016872583","",""
"1100557","Egringen, Rathaus","47.6637801788236","7.59648642022724","",""
"1100558","Egringen, Kanderner Strasse","47.665177703935","7.59958560795788","",""
"1100559","Mappach","47.679894819512","7.59889390518901","",""
"1100560","Kandern, Holzen Friedhof","47.6934287234839","7.62166619764461","",""
"1100561","Riedlingen, Abzweigung Bad","47.6979815665241","7.62180992809009","",""
"1100562","Weil am Rhein, Bühlstrasse","47.5940864215283","7.61491086670709","",""
"1100563","Weil am Rhein, Leimgrubenstr.","47.5958795724343","7.61914193169588","",""
"1100564","Weil am Rhein, Stettiner Str.","47.5976908347824","7.62398385107796","",""
"1100565","Lörrach, Rötteln","47.6318023312741","7.65788626990535","",""
"1100566","Rümmingen, Lörracher Strasse","47.6388059678603","7.64159083064916","",""
"1100567","Rümmingen, Schallbacher Str.","47.6420138889351","7.64115963931272","",""
"1100568","Schallbach (Baden), Dorfstr.","47.6554668537189","7.62704710619724","",""
"1100570","Wollbach (Kr LÖ), Bahnhof","47.668051285189","7.64917261164818","",""
"1100571","Hammerstein, Abzw. Bahnhof","47.6904416490227","7.64632495219712","",""
"1100572","Kandern, Staiggasse","47.7114503330101","7.65943137219425","",""
"1100573","Maugenhard, Abzweigung","47.6758968686923","7.62905933243395","",""
"1100574","Tannenkirch, Abzweigung","47.7075152498916","7.58109827940813","",""
"1100575","Feuerbach (Baden)","47.7354231354145","7.64125845399399","",""
"1100576","Riedlingen, Milchhaus","47.7153428110708","7.63442227468088","",""
"1100577","Riedlingen, Dorfstrasse","47.7157658889928","7.63667704604434","",""
"1100578","Marzell, Fachklinik Kandertal","47.7815670371454","7.73260813524882","",""
"1100579","Marzell, Abzweigung Lipple","47.7761340748639","7.7406480570428","",""
"1100580","Marzell, Katholische Kirche","47.7718778578617","7.72852978385835","",""
"1100581","Marzell, Ort","47.7701148971613","7.72463109552472","",""
"1100582","Marzell, Alte Mühle","47.7648377329814","7.7230590437773","",""
"1100583","Marzell, Kaltenbacher Brücke","47.7609912245062","7.71941188372326","",""
"1100584","Marzell, Lütschenbacher Brücke","47.7493533518401","7.71516285242879","",""
"1100585","Malsburg, Steinbruch","47.7407636936629","7.71362673329273","",""
"1100586","Malsburg, Kranz","47.736885197897","7.71260265386869","",""
"1100587","Malsburg, Hirschen","47.7320034405527","7.7074822567485","",""
"1100588","Malsburg, Vogelbacherstr.","47.7280638670609","7.69212106538791","",""
"1100589","Kandern, Möbelfabrik Vollmer","47.724420100555","7.68661439269549","",""
"1100590","Kandern, Spinnerei","47.7176817845802","7.67718208221093","",""
"1100591","Kandern, Waldeck","47.7152823710872","7.67330136018299","",""
"1100592","Kandern, Bösigerstrasse","47.7148895094853","7.66604297268629","",""
"1100593","Riedlingen, Erlenboden","47.7261423105214","7.62176501232588","",""
"1100594","Schliengen, Liel Denkmal","47.7393621522085","7.60934131194478","",""
"1100595","Hertingen (Bd), Hauptstrasse","47.723145024212","7.58408068615182","",""
"1100596","Hertingen (Bd), KiHaus Engels","47.7243234133951","7.58966820721982","",""
"1100597","Ötlingen (Baden), Dorfstrasse","47.6226180942049","7.62267231076297","",""
"1100598","Lörrach, Maienbühl","47.6001804609681","7.67480154670768","",""
"1100599","Lörrach, Steinenweg","47.6006953323785","7.67039980181488","",""
"1100600","Lörrach, Hauptstrasse","47.6013192285915","7.66444397148034","",""
"1100602","Schopfheim, Lusweg/Blauenstr.","47.6443137865776","7.80678202826889","",""
"1100605","Haltingen, Güterstrasse","47.6105314317614","7.6125842301209","",""
"1100607","Märkt, Altrheinhalle","47.6235141883752","7.58410763561035","",""
"1100608","Märkt, Kirche","47.6263779539143","7.58118811093655","",""
"1100609","Weil am Rhein, Ost Zoll","47.5921538691554","7.64244423016919","",""
"1100611","Schliengen, Am Sonnenstück","47.7645358195256","7.57568143824413","",""
"1100612","Tannenkirch, Kinderschule","47.710706860808","7.60514617956736","",""
"1100613","Eimeldingen, Märkter Strasse","47.6303978590065","7.58941667894023","",""
"1100614","Haltingen, West","47.6124027461554","7.6063409388954","",""
"1100615","Inzlingen, Riehener Strasse","47.5874342642034","7.6940434600962","",""
"1100616","Inzlingen, Bruggewoog","47.58817343455","7.68414402566382","",""
"1100617","Inzlingen, Abzweigung Au","47.5875675579882","7.67913142637774","",""
"1100618","Stetten (LÖ), Neumatt","47.5992052200556","7.65374503644499","",""
"1100619","Lörrach, Teichstrasse","47.6141165449293","7.65365520491656","",""
"1100620","Lörrach, Haltinger-Pfad","47.6138258692339","7.64973855027726","",""
"1100621","Lörrach, Steghalden","47.6147100027905","7.65184959119523","",""
"1100622","Lörrach, Hornbrunnenweg","47.6046384736389","7.64614528914028","",""
"1100623","Lörrach, Obertüllingen","47.5982057306933","7.64158184749631","",""
"1100624","Lörrach, Arend-Braye-Strasse","47.6041781529628","7.68776423625933","",""
"1100625","Lörrach, Röttelnblick","47.6034634365175","7.6894081532295","",""
"1100626","Lörrach, Salzertstrasse","47.6018825459649","7.68612031928916","",""
"1100627","Lörrach, Dinkelbergstrasse","47.6037905113569","7.68198806898163","",""
"1100628","Lörrach, Jugendherberge","47.6011556837018","7.67832294262192","",""
"1100629","Lörrach, Goethestrasse","47.602494313876","7.66057223260524","",""
"1100630","Lörrach, Niederfeldplatz","47.606800715242","7.66209038543562","",""
"1100631","Lörrach, Heithemstrasse","47.621449515893","7.66599805692208","",""
"1100632","Lörrach, Wintersbuckstr.","47.6236776633577","7.66745332768256","",""
"1100633","Lörrach, Karl-Herbster-Platz","47.6228663380471","7.66879181745608","",""
"1100634","Lörrach, Elisbeth.-Krankenhaus","47.6182282217831","7.66467753345424","",""
"1100635","Lörrach, Arndtstrasse","47.6222063701116","7.65906306292771","",""
"1100636","Tumringen, Schule","47.6259602050791","7.65732033127628","",""
"1100637","Tumringen, Mühlestrasse","47.6281760520906","7.65767965738998","",""
"1100638","Tumringen, OBB GmbH","47.629719824403","7.66036562008987","",""
"1100639","Haagen (Baden), Röttelnweiler","47.6312635511166","7.66315039747103","",""
"1100640","Haagen (Baden), Ritterstrasse","47.6354949446501","7.67336424225289","",""
"1100641","Haagen (Baden), Zentrum","47.6371292967717","7.67922125790616","",""
"1100642","Hauingen, Unterdorfstrasse","47.6429338601429","7.69395362856777","",""
"1100643","Haagen (Baden), Sportplatz","47.6393446702548","7.68526691976913","",""
"1100644","Lörrach, Baumgartnerstrasse","47.6085692049481","7.66317734692955","",""
"1100645","Lörrach, Senigallia Platz","47.614437497466","7.66140766581959","",""
"1100646","Lörrach, Schulzentrum","47.6213223633092","7.6625305599249","",""
"1100647","Lörrach, Gasthaus Blume","47.6171140437914","7.66898046366577","",""
"1100648","Lörrach, Rebmannsweg","47.620656320913","7.67490036138895","",""
"1100649","Brombach (LÖ), Römerstrasse","47.6327527501451","7.69313616165911","",""
"1100650","Brombach (LÖ), Schützenhaus","47.6321716043537","7.70211931450156","",""
"1100651","Brombach (LÖ), Bühl","47.6315783446923","7.69809486202814","",""
"1100652","Brombach (LÖ), Grossmannstr.","47.6340905716223","7.69871469957427","",""
"1100653","Brombach (LÖ), Schöpflin","47.6361850106701","7.69701688368705","",""
"1100654","Lörrach, Dorfstrasse","47.6025791128239","7.64486968143665","",""
"1100655","Binzen (Kr LÖ), Rathausplatz","47.6313543571503","7.62389401954954","",""
"1100656","Binzen (Kr LÖ), Gewerbepark","47.6254516367736","7.61341966333525","",""
"1100657","Tannenkirch, Ochsen","47.7105376136215","7.60909876681803","",""
"1100658","Fischingen (Bd), Abzweigung","47.6441019581336","7.58667681732329","",""
"1100659","Efringen-Kirchen, Rathaus","47.6465591152733","7.56886322523672","",""
"1100660","Efringen-Kirchen, Hauptstrasse","47.6522234509405","7.56535979562816","",""
"1100661","Efringen-Kirchen, Bahnhof","47.6534518529316","7.58503290035312","",""
"1100662","Wintersweiler","47.674384704576","7.56714744304381","",""
"1100663","Huttingen, Abzweigung","47.6738282171507","7.5580654755201","",""
"1100664","Huttingen","47.6724672174646","7.54769891713991","",""
"1100665","Blansingen, Alemannnenstrasse","47.6910160997069","7.53973984372151","",""
"1100666","Welmlingen","47.6904597896674","7.56332061993293","",""
"1100667","Istein, Neue Strasse","47.6573607625481","7.54270428415951","",""
"1100668","Istein, Rathaus","47.6602287237285","7.53938051760781","",""
"1100669","Kleinkems, Rheinstrasse","47.6849145054631","7.52242032504127","",""
"1100670","Kleinkems, Rathaus","47.6880954057961","7.52180947064799","",""
"1100671","Rheinweiler, Rheinweiler Ort","47.7098727086388","7.53175382084457","",""
"1100672","Bamlach","47.7170592773364","7.54952249716693","",""
"1100673","Bad Bellingen, Thermalbad","47.7294173737665","7.55150777394511","",""
"1100674","Bad Bellingen, Markushof","47.7317677995977","7.55426560186774","",""
"1100675","Bad Bellingen, Hertinger Str.","47.7304264384677","7.55781394724051","",""
"1100676","Bad Bellingen, Römerstrasse","47.7284022470349","7.57000408564771","",""
"1100677","Neuenburg (D), Friedhofstr.","47.8146294561996","7.56853084858155","",""
"1100678","Neuenburg (D), Malzacker","47.7709239344918","7.55599935036633","",""
"1100679","Neuenburg (D), Sägeweg","47.809423174175","7.56342841776704","",""
"1100680","Neuenburg (D), Freiburger Str.","47.8194733031419","7.5680547414809","",""
"1100681","Neuenburg (D), Steinenstadt","47.7680680972715","7.55590053568507","",""
"1100683","Neuenburg (D), Breisacher Str.","47.8147621703557","7.55947583051636","",""
"1100718","Bötzingen, Bahnhof","48.0706347824479","7.72134326158439","",""
"1100723","Inzlingen, Zoll","47.5855741746058","7.67283423623518","",""
"1100725","Auggen, Siedlung Richtberg","47.8108469601605","7.58232897134754","",""
"1100730","Münstertal (Schw), Schule Krum","47.8730150302752","7.81380685379168","",""
"1100731","Freiburg (D), Busbahnhof","47.9969533800733","7.84142106562936","","Parent1100731"
"1100736","Wehr (D), Novartis","47.6196693515775","7.90529128233915","",""
"1100737","Wehr (D), Kath. Kirche","47.6300648966844","7.90274905008474","",""
"1100738","Wehr (D), Busbahnhof","47.624192303483","7.9042851692208","",""
"1100739","Brennet, Baslerstrasse","47.5853196946672","7.90918997067277","",""
"1100740","Bad Säckingen, Gewerbeschule","47.5582832452609","7.94565258806026","",""
"1100741","Bad Säckingen,Werner Kirchh.RS","47.55499137283","7.93804385760271","",""
"1100743","Lörrach, Kindergarten","47.60369965744","7.68382063216149","",""
"1100861","Münstertal (Schw), Süssenbrunn","47.8512215784742","7.78755808118606","",""
"1100863","Friedrichshafen, Stadtbahnhof","47.6527559637261","9.47353417296195","",""
"1100864","Fr'hafen, Jugendherberge","47.649869437322","9.49780665194224","",""
"1100866","Kressbronn, Bahnhof","47.5946801066731","9.59883118880838","",""
"1100867","Wangen (Allgäu), Bahnhof","47.6890508474781","9.8310456897856","",""
"1100871","Leutkirch, Bahnhof","47.8267110864824","10.0170239030828","",""
"1100873","Lindau (D), Inselbahnhof","47.5443383536194","9.68153907702878","",""
"1100876","Eriskirch, Irisstrasse","47.6296774469482","9.52872666402593","",""
"1100878","Langenargen, Bahnhof","47.5992900243349","9.54393514178819","",""
"1100880","Lindau (D), Kopernikuspl./Zech","47.5407605877583","9.7339467907116","",""
"1100882","Horn (D) (See)","47.6899397553511","9.00106524921352","",""
"1100895","Lindau (D), Bahlsen","47.5481947904691","9.72347243449731","",""
"1100896","Lindau-Reutin, Bahnhof","47.5528451788877","9.70464374613955","",""
"1100897","Lindau (D), Buttlerhügel","47.5540941046991","9.70731174253375","",""
"1100898","Lindau (D), Grenzsiedlung/Zech","47.5376434876321","9.73451272934068","",""
"1100900","Lindau (D), Kamelbuckel","47.5531301306015","9.71451623111339","",""
"1100901","Remetschwiel (D),Haagwaldhalle","47.6793807280228","8.15337901438897","",""
"1100902","Remetschwiel (D), Kindergarten","47.6831425510024","8.15009118044864","",""
"1100903","Lindau (D), Kunert","47.539869140301","9.73111709756623","",""
"1100904","Lindau (D), Metzeler","47.5456481187062","9.72584398684772","",""
"1100905","Lindau (D), Oberhochsteg","47.5515962233109","9.73697411321951","",""
"1100906","Lindau (D), Rickenbach","47.5547791824293","9.72804485929412","",""
"1100911","Aach (Hegau), Aach Rathaus","47.8429803510335","8.85189101311186","",""
"1100912","Aach (Hegau), Aachquelle","47.8462179169524","8.85831396739421","",""
"1100913","Aach (Hegau), Autohaus Gohm","47.8388381424663","8.86000280012859","",""
"1100916","Aach-Linz, Löwen","47.9113844179779","9.1997905563941","",""
"1100917","Ablach, Bosch","48.0139684434865","9.23000988255609","",""
"1100919","Ablach, Rathaus","48.0210168410411","9.22651543610037","",""
"1100920","Ablach, Riedäcker","48.0184151150954","9.22602136269404","",""
"1100922","Allensbach, Am Kappelhof","47.7196217837196","9.05665299900257","",""
"1100923","Allensbach, Bahnhof","47.7149559939646","9.06799872104258","",""
"1100924","Allensbach, Gewerbegebiet","47.7229033000591","9.07368505679185","",""
"1100925","Allensbach, Himmelreich","47.7132878123005","9.07557151888876","",""
"1100926","Allensbach, Scheffelstrasse","47.7190113867945","9.07218487026716","",""
"1100927","Allensbach, Steig","47.7162977535067","9.06998399782076","",""
"1100929","Allensbach, Unterhaus","47.720727732208","9.0527453275161","",""
"1100930","Allensbach, Vereinshaus","47.7173493787249","9.06348917831567","",""
"1100931","Allensbach, Höhrenbergstrasse","47.7180867124841","9.06341731309293","",""
"1100932","Allensbach, Konstanzer Strasse","47.712302592974","9.08017089314409","",""
"1100935","Anselfingen, Almenstrasse","47.8451086061361","8.76143964714128","",""
"1100936","Anselfingen, Haldenhof","47.8448975932409","8.74246722833803","",""
"1100937","Anselfingen, Hauserhof","47.8441801429762","8.72970216814892","",""
"1100938","Anselfingen, Hof Hewenblick","47.8398933216029","8.76592224040966","",""
"1100939","Anselfingen, Im Hotzental","47.8458079570231","8.7645568011776","",""
"1100940","Anselfingen, Rathaus","47.8460249950364","8.76345187337798","",""
"1100941","Anselfingen, Sonnenring","47.8429441759711","8.76371238481042","",""
"1100942","Anselfingen, Unterdorfstrasse","47.8450784614894","8.76157439443391","",""
"1100943","Arlen, Gems/Arlenerstrasse","47.7247343325852","8.84517161478571","",""
"1100945","Arlen, Lindenstrasse","47.7269701596091","8.84628552573818","",""
"1100946","Bankholzen, Schienerbergstr.","47.7100782256301","8.93018817328662","",""
"1100947","Bankholzen, Vordere Höristr.","47.710706860808","8.93155361251867","",""
"1100948","Bargen (D), Grüner Baum","47.8828901841132","8.76424239082812","",""
"1100949","Beuren (Ried), Rathaus","47.798284925141","8.69668908145293","",""
"1100950","Neustadt (Schwarzw), Bahnhof","47.9114566725711","8.20980219739237","",""
"1100951","Bärental, Ortsmitte","47.868706487605","8.09587785304448","",""
"1100953","Altglashütten, Sparkasse","47.8558028210649","8.11211041023078","",""
"1100954","Aha, Gasthaus Auerhahn","47.8334835313069","8.1327087796985","",""
"1100955","Schluchsee, Bahnhof","47.8169519049601","8.17745386400673","",""
"1100956","Seebrugg, Strassenkreuzung","47.8006262071393","8.19798036825171","",""
"1100957","Seebrugg, Bahnhof","47.803275107744","8.19100045849313","",""
"1100959","Beuren (Ried), Bibertalstrasse","47.7978926897457","8.69774011033549","",""
"1100967","Löffingen, Bahnhof","47.883534805339","8.34231268497129","",""
"1100968","Friedenweiler, Kindergarten","47.8944439533612","8.29436959825116","",""
"1100970","Beuren (Aach), Aacher Weg","47.803317344245","8.87321701795983","",""
"1100971","Beuren (Aach), Buronstrasse","47.8013623616341","8.87441177728788","",""
"1100972","Beuren (Aach), Haasenäckerstr.","47.8059962749983","8.8747351707902","",""
"1100973","Beuren (Aach), Rathaus","47.7989185299092","8.87460042349757","",""
"1100974","Beuren (Aach),Schule/Espenstr.","47.7982668220341","8.87292057391603","",""
"1100975","Beuren (Aach), Stegernstrasse","47.7971987275615","8.87486991808284","",""
"1100976","Biesendorf, Biesendorfer Str.","47.9094274843787","8.81329040534787","",""
"1100977","Biesendorf, Bürgerhaus","47.9130041008931","8.81294904553986","",""
"1100978","Bietingen, Bahnhof","47.744043878104","8.73924227646759","",""
"1100981","Bietingen, Hohackerstrasse","47.7390480084305","8.73496629571459","",""
"1100983","Binningen (KN), Am Berg","47.7933063330949","8.72831876261118","",""
"1100984","Binningen (KN), Krone","47.7937167078115","8.725021945518","",""
"1100986","Binningen (KN), Stubenkreuz","47.7901922075847","8.72336904539499","",""
"1100987","Bittelbrunn, Rathaus","47.8662959578304","8.81005647032459","",""
"1100988","Bittelschiess","47.9952040744942","9.2252937273138","",""
"1100989","Blumenfeld, Abzw. Weil","47.8129041413033","8.68908035099538","",""
"1100990","Blumenfeld","47.8147561379014","8.68134585639803","",""
"1100993","Bodman, Kapelle","47.802484675461","9.02874234312109","",""
"1100996","Bodman, Metzgerbuckel","47.7972289000231","9.04168706636706","",""
"1100998","Bodman, Ortsmitte","47.8011511708379","9.03460834192721","",""
"1100999","Bodman, Seeum/Hafen","47.8006141389459","9.03747396768395","",""
"1101021","Bohlingen, Rathaus","47.7215617106228","8.89599829356827","",""
"1101049","Bohlingen, Fabrikstrasse","47.7188179922176","8.89580066420574","",""
"1101117","Bohlingen, Ledergasse","47.7184614190843","8.89365369067639","",""
"1101118","Bohlingen, Mooserstrasse","47.7228066100839","8.89898070031196","",""
"1101119","Bohlingen, Weinhalde","47.7234290486584","8.89278232485068","",""
"1101154","Böhringen (KN), Bahnhof","47.7498305135114","8.92733153068272","",""
"1101185","Böhringen (KN), Bodenseestr.","47.7532852751016","8.93968336584108","",""
"1101186","Böhringen (KN), Erzberger Str.","47.7512800917556","8.92655897953827","",""
"1101187","Böhringen (KN), Espelweg","47.7512257333001","8.92943358844786","",""
"1101188","Böhringen (KN), Hölzlestrasse","47.7559728243658","8.93403296270319","",""
"1101189","Böhringen (KN), Kindergarten","47.7560694527655","8.9364494308178","",""
"1101305","Böhringen (KN), Kirche","47.7527477485917","8.93254175933134","",""
"1101306","Böhringen (KN), Oberholz","47.7551635544742","8.93906352829496","",""
"1101307","Böhringen (KN), Reute","47.7615709362933","8.95723644649522","",""
"1101308","Böhringen (KN), Rickelshausen","47.7423524644236","8.92665779421954","",""
"1101309","Böhringen (KN), Rommelstrasse","47.7536959657718","8.93639553190075","",""
"1101310","Böhringen (KN), Schule","47.7542999167517","8.93846165705451","",""
"1101311","Böhringen (KN), Sportplatz","47.7525122015176","8.92810408182717","",""
"1101312","Böhringen (KN), Wiesengrund","47.7517330766767","8.94255797475067","",""
"1101313","Böhringen (KN),Bei der Bachbr.","47.7537925983996","8.9327663381524","",""
"1101314","Böhringen (KN),P.-Gerhard-Str.","47.752367248942","8.93198480385511","",""
"1101316","Büsingen, Bürgerhaus","47.6961495938153","8.68769694545764","",""
"1101319","Büsingen, Kirche St. Michael","47.6987070824763","8.70297728844264","",""
"1101322","Büsingen (Schifflände)","47.6954300885799","8.69332039913701","",""
"1101323","Büsingen, Schifflände","47.69692350433","8.69351802849955","",""
"1101324","Büsingen, Stemmer","47.6864142697131","8.66894910547546","",""
"1101325","Büsingen, Stemmer/Goethestr.","47.6864082223632","8.66886825709988","",""
"1101326","Büsingen, Strandbad","47.6963249339227","8.69686874450978","",""
"1101327","Büsingen, Wiesli","47.6910040060734","8.68155246891341","",""
"1101328","Büsslingen, Bergstrasse","47.793209773867","8.68583743281926","",""
"1101329","Büsslingen, Schaffhauser Str.","47.7924674688117","8.68357367830296","",""
"1101333","Dettingen (KN), Feuerwehr","47.7381599378817","9.11676825782422","",""
"1101334","Dettingen (KN), Kinderspielpl.","47.731695294474","9.11808878129206","",""
"1101335","Dettingen (KN), Ortsmitte","47.7362870863889","9.11670537575432","",""
"1101338","Dettingen (KN), Zeller Strasse","47.7383351366724","9.11233956347289","",""
"1101341","Deutwang, Kirche","47.880058575312","9.0794522409167","",""
"1101342","Dietlishof, Nord","47.7566009057559","8.77868730059877","",""
"1101345","Dingelsdorf, Klausenhorn","47.7426363841297","9.14784996665908","",""
"1101346","Dingelsdorf, Oberdorf","47.7281484622605","9.15792008099546","",""
"1101347","Dingelsdorf, Ortsmitte","47.7389271833957","9.15586293899454","",""
"1101348","Dingelsdorf, Thingolthalle","47.7363475020047","9.15532394982399","",""
"1101349","Dingelsdorf, Wallhauser Str.","47.7405764209112","9.15191933489671","",""
"1101350","Albbruck, ehem. Papierfabrik","47.5922326266031","8.13177453180289","",""
"1101351","Murg (Baden), Bahnhof","47.5534514572709","8.01872155328071","",""
"1101352","Laufenburg (D), Ostbahnhof","47.5661634992305","8.07368946552364","",""
"1101353","Duchtlingen, Hegaustrasse","47.7904698310012","8.79087743900597","",""
"1101354","Ebringen, Thaynger Strasse","47.7508633421458","8.75592399129602","",""
"1101355","Eckartsbrunn, Honstetter Str.","47.8808779503677","8.87195039340904","",""
"1101357","Egg (Konstanz), Universität","47.6913002992847","9.19086130246871","",""
"1101361","Ehingen (Donau), Kirchstrasse","47.8266628379348","8.80233095888009","",""
"1101362","Ehingen (Donau),Rathaus/Schule","47.8251610794696","8.80263638607673","",""
"1101363","Eigeltingen, Alte Post","47.8574302703395","8.89434539344526","",""
"1101364","Eigeltingen, Bruderhof","47.849829041639","8.92426827556345","",""
"1101365","Eigeltingen, Homberger Strasse","47.8606729614076","8.90424482787764","",""
"1101366","Eigeltingen, Industriegebiet","47.8567371037455","8.90269074243589","",""
"1101368","Eigeltingen, Kirche","47.8587502750089","8.89877408779659","",""
"1101370","Eigeltingen, Schule","47.8610044518558","8.89427352822252","",""
"1101371","Engen (Hg), Bahnhof","47.856007761933","8.77256079036022","",""
"1101372","Engen (Hg), Bitzental/Hundepl.","47.8662115872576","8.76242779395395","",""
"1101373","Engen (Hg), Erlebnisbad","47.8611973180503","8.76670377470695","",""
"1101375","Engen (Hg), Grub Jahnstrasse","47.855495408244","8.78892809483916","",""
"1101376","Engen (Hg), Grub McDonalds","47.8561222873594","8.79194643419422","",""
"1101377","Engen (Hg), Grundschule","47.855646101031","8.77895679518405","",""
"1101378","Engen (Hg), Haydnweg","47.8504981873825","8.7789478120312","",""
"1101379","Engen (Hg), Hegaustrasse","47.8480868108676","8.77004550756434","",""
"1101380","Engen (Hg), Hewenstrasse","47.8559052916002","8.76969516460349","",""
"1101381","Engen (Hg), Im Briele","47.8587804117094","8.76965923199212","",""
"1101382","Engen (Hg), Im Glockenziel","47.860112436373","8.76478137999867","",""
"1101383","Engen (Hg), In den Kohlwiesen","47.8633308524531","8.7687249840965","",""
"1101384","Engen (Hg), Kinderh. Sonnenuhr","47.8543139616176","8.77614506834436","",""
"1101385","Engen (Hg), Krankenhaus","47.8534218310213","8.76559884690733","",""
"1101387","Engen (Hg), Maxenbuck","47.8529817879802","8.77207570010673","",""
"1101389","Engen (Hg), Schillerstrasse","47.8542838223209","8.77113246905828","",""
"1101390","Engen (Hg), Schützenstrasse","47.8585513723462","8.78110376871339","",""
"1101391","Engen (Hg), Schwarzwaldstrasse","47.8578280835038","8.77271350395855","",""
"1101392","Engen (Hg), Spitzenhof Abzw.","47.8869083930516","8.73119337152076","",""
"1101393","Engen (Hg), Sporthalle/Schulen","47.8542958780417","8.78520008640955","",""
"1101394","Engen (Hg), Vögtleshalde","47.8504861307788","8.77591150637046","",""
"1101396","Engen (Hg),Breitestr/Ärztehaus","47.8559113192724","8.77484251118221","",""
"1101397","Engen (Hg), Herm.-Bürgerm.-Str","47.8569179307069","8.76223914774426","",""
"1101398","Engen (Hg), KiHaus Glockenziel","47.8609984247757","8.76558986375449","",""
"1101399","Engen (Hg), M.-Claudius-Str.","47.8587804117094","8.76440408757929","",""
"1101400","Engen (Hg), R.-Stocker-Strasse","47.8612093721636","8.77594743898183","",""
"1101401","Engen (Hg),Vögtleshalde Parkpl","47.8500641478841","8.77196790227262","",""
"1101402","Engen (Hg),Zum Franzosenwäldle","47.8550614105705","8.76334407554388","",""
"1101405","Espasingen, Kirche","47.8204022084478","9.01150367281644","",""
"1101407","Freudental","47.7490453084375","9.07987444910029","",""
"1101420","Friedingen (Kr KN), Am Mühlweg","47.789280868119","8.87637908776037","",""
"1101421","Friedingen (Kr KN), Rathaus","47.7864381105638","8.87607366056373","",""
"1101422","Friedingen, Buchbergstrasse","47.783462403729","8.87413329954976","",""
"1101423","Friedingen, Hausener Strasse","47.7862691094646","8.8742051647725","",""
"1101424","Gaienhofen (See)","47.6794593541081","8.98231740923133","",""
"1101425","Gaienhofen, Hermann-Hesse-Sch.","47.6866319738427","8.98353911801791","",""
"1101426","Gaienhofen, Schloss Gaienhofen","47.680759691411","8.98026026723041","",""
"1101427","Gaienhofen, Touristinfo","47.6842613688437","8.98406014088277","",""
"1101428","Gailingen, Bierkellerweg","47.6958351893875","8.76096354004063","",""
"1101429","Gailingen, Feuerwehrgerätehaus","47.6951156798137","8.76417052560538","",""
"1101430","Gailingen, Friedrichsheim","47.6997409252648","8.74786610319634","",""
"1101431","Gailingen, Jugendwerk","47.6898067224838","8.7681320960089","",""
"1101432","Gailingen, Kapellenstr. West","47.6927938333115","8.76167320911518","",""
"1101433","Gailingen, Kapellenstrasse Ost","47.6922798689391","8.76314644618134","",""
"1101434","Gailingen, Löwen","47.697933198435","8.75190852197544","",""
"1101436","Gailingen, Ramsener Strasse","47.696645381561","8.75581619346191","",""
"1101438","Gailingen, Sagenbuck","47.6932050011623","8.76301169888871","",""
"1101439","Gailingen, Schule","47.6948133619046","8.75378600091951","",""
"1101440","Gallmannsweil, Pfarrkirche","47.9237926651156","8.99705876304579","",""
"1101442","Eigeltingen, Bachbruck","47.9102825229309","8.91014675929512","",""
"1101443","Eigeltingen, Hochbehälter","47.9079582302125","8.9133806943184","",""
"1101444","Eigeltingen, Sommerhoferweg","47.9102825229309","8.90989523101553","",""
"1101445","Göggingen (Baden), Adlerplatz","48.0050799600864","9.19816460572962","",""
"1101447","Gottmadingen, Bahnhof","47.7371268571636","8.77422267363608","",""
"1101449","Gottmadingen, FWH/Hilzingerstr","47.7361179222918","8.77751949072925","",""
"1101450","Gottmadingen, Goldbühl","47.7351150095711","8.78728417786899","",""
"1101451","Gottmadingen, Hilzinger Str.","47.7415248598495","8.78498449074133","",""
"1101452","Gottmadingen, Industriepark O","47.7385828305084","8.79515341975898","",""
"1101453","Gottmadingen, Industriepark W","47.7375014268102","8.78835317305724","",""
"1101455","Gottmadingen, Kornblumenweg","47.7334414314783","8.78601755331821","",""
"1101456","Gottmadingen, Randegger Str.","47.7339126971761","8.77017127170413","",""
"1101457","Gottmadingen, Hauptstrasse","47.7352418851392","8.77309079637793","",""
"1101458","Gottmadingen, Rielasinger Str.","47.732220954334","8.78187631985784","",""
"1101459","Murbach (D), Zum Grenzstein","47.7146477470272","8.76719784811329","",""
"1101460","Eigeltingen, Abzw. K6177","47.8913358934805","8.93102360650097","",""
"1101461","Eigeltingen, Germania","47.8915286468057","8.92619067027173","",""
"1101462","Gundholzen, Altes Rathaus","47.7025340120378","8.99000698806447","",""
"1101463","Gundholzen, Möösle L192","47.7058831006012","8.97974822751839","",""
"1101464","Güttingen (KN), Dorfplatz","47.7731034425846","8.99514535149034","",""
"1101465","Güttingen (KN), Kreisel","47.7720227560833","8.9889559591819","",""
"1101466","Güttingen (KN), Schule","47.7721374668891","8.99172277025737","",""
"1101467","Güttingen (KN), Bordwaldstr.","47.7740573259756","8.99987048988547","",""
"1101468","Hausen (Aach), Zur Sulz","47.7923709080251","8.83902713824148","",""
"1101469","Hausen (Aach), Unter dem Bohl","47.794054661027","8.84167716833","",""
"1101470","Hausen (Aach), Hinter d. Reben","47.7911759534426","8.83447267975036","",""
"1101471","Hecheln, Kapelle","47.9169657881894","8.99245040563761","",""
"1101473","Hegne, Kloster Hegne","47.7095342082981","9.10152384745058","",""
"1101474","Hegne, Marianum","47.7078598082081","9.10379658511972","",""
"1101475","Hemmenhofen, Dorfstrasse","47.673332212487","8.9683216571028","",""
"1101476","Hemmenhofen, Fischersteig","47.673997583517","8.96870793267503","",""
"1101477","Hemmenhofen (See)","47.6719893469331","8.96894149464893","",""
"1101478","Hemmenhofen, Otto-Dix-Weg","47.6725821476991","8.96385703014011","",""
"1101480","Heudorf (KN), Bohlhof","47.9064829125457","8.93905454514211","",""
"1101481","Heudorf (KN), Ortsmitte","47.9131546264704","8.93639553190075","",""
"1101482","Heudorf (KN), Rathaus","47.9144431074967","8.9350300926687","",""
"1101484","Heudorf (KN), Staigstrasse","47.9177063131076","8.93379041757644","",""
"1101485","Heudorf (KN), Krätlemühle","47.9162854592078","8.95945528524731","",""
"1101486","Hilzingen, Duchtlinger Strasse","47.7671322179795","8.78189428616353","",""
"1101487","Hilzingen, Friedhof","47.7632556870062","8.79073370856049","",""
"1101488","Hilzingen, Hegau-Hallen","47.7637870665933","8.77720508037977","",""
"1101489","Hilzingen, Industriegebiet","47.7604115062593","8.78882928015789","",""
"1101490","Hilzingen, Kreuz","47.7644029770498","8.77975629578702","",""
"1101491","Hilzingen, Schwimmbad","47.7655623181259","8.77534556774138","",""
"1101492","Hilzingen, Sonne","47.7652241796479","8.78467008039184","",""
"1101494","Hindelwangen, Adler","47.861034587246","9.00335595318834","",""
"1101496","Hirschlanden","47.8648495861525","8.92096247531743","",""
"1101501","Hohenfels, Selgetsweiler","47.8824865387007","9.13597423860137","",""
"1101502","Homberg/Hegau, Krone","47.8761904680817","8.93030495427357","",""
"1101503","Homberg/Hegau, Zur Minkenmühle","47.8757385675567","8.93037681949631","",""
"1101504","Honstetten, Breitesteinhof","47.8865529718442","8.88429324541456","",""
"1101505","Honstetten, Engener Strasse","47.8948173898629","8.88395188560655","",""
"1101506","Honstetten, Mühle","47.889540843689","8.89101264374071","",""
"1101507","Honstetten, Tudoburghalle","47.8918057284538","8.88366442471559","",""
"1101508","Hoppetenzell, Aachtalstrasse","47.8944379301698","9.0091680530774","",""
"1101509","Hoppetenzell, Johanniterstr.","47.8915828585492","9.01089281842315","",""
"1101511","Hoppetenzell, Sartorystrasse","47.8931911144564","9.01140485813517","",""
"1101512","Horn (D), Campingplatz Abzw.","47.6932654667492","8.99327685569911","",""
"1101514","Horn (D), Hirschen","47.6967118893147","8.99397754162083","",""
"1101517","Igelswies","48.0050619291514","9.13811222897787","",""
"1101518","Igelswies, Kirchenösch","48.0029702979254","9.13241691007576","",""
"1101520","Iznang, Höristrasse","47.7146417029514","8.96061411196398","",""
"1101523","Kalkofen, Abzw. Loghöfe","47.8789740883996","9.12390088118112","",""
"1101524","Kalkofen, Dorfplatz","47.8736055438751","9.10885410017002","",""
"1101525","Kalkofen, Hagendorn","47.8784619616887","9.08958523732298","",""
"1101526","Kalkofen, Schernegg","47.8760699616604","9.11033632038903","",""
"1101527","Kalkofen, Stockacher Strasse","47.8760880376414","9.11039920245892","",""
"1101528","Kaltbrunn (KN), Allensbach","47.7339308226946","9.07477201828578","",""
"1101529","Kattenhorn, Landstrasse","47.6582683622389","8.9133806943184","",""
"1101530","Konstanz, Allmannsd. Str/Z'pl.","47.6735136781548","9.18529174770639","",""
"1101531","Konstanz, Allmannsdorfer Str.","47.6737798266593","9.18806754193471","",""
"1101532","Konstanz, Am Bettenberg","47.6991544789478","9.15772245163293","",""
"1101533","Konstanz, Am Rheinufer","47.6709126099513","9.17227515923769","",""
"1101534","Konstanz, An der Steig","47.6795803170849","9.20128175976594","",""
"1101535","Konstanz, Bahnhof","47.6593453600697","9.17699131447997","",""
"1101536","Konstanz, Bahnhof Petershausen","47.6751105488208","9.17131396188355","",""
"1101537","Konstanz, Bismarcksteig","47.6754492726797","9.18050372724137","",""
"1101538","Konstanz, Bodan","47.6878777077746","9.14869438302627","",""
"1101539","Konstanz, Bodan/Riedstrasse","47.6863054173076","9.14835302321826","",""
"1101540","Konstanz, Bodanplatz","47.6581352486048","9.17383822783227","",""
"1101541","Konstanz, Bodenseeforum/IHK","47.6716868949684","9.16769375128804","",""
"1101542","Konstanz, Bodensee-Stadion","47.6670168141622","9.20972592343784","",""
"1101543","Konstanz, Bodensee-Therme","47.6647179162534","9.20834251790011","",""
"1101544","Konstanz, Brandenburger Str.","47.6857248673082","9.14629588121733","",""
"1101545","Konstanz, Breslauer Str. Ost","47.6847693646989","9.15209001480071","",""
"1101546","Konstanz, Breslauer Str. West","47.68559182369","9.14943998471219","",""
"1101547","Konstanz, Brüelstrasse","47.6641855254571","9.16564559243996","",""
"1101548","Konstanz, Bücklestrasse","47.6759392086569","9.17200566465241","",""
"1101549","Konstanz, Buhlenweg","47.6837473203829","9.15873754790412","",""
"1101550","Konstanz, Buhlenweg Süd","47.6830095007978","9.15806381144094","",""
"1101551","Konstanz, Bürgerbüro","47.6624189170955","9.17240092337748","",""
"1101552","Konstanz, Byk-Gulden-Strasse","47.6799492524319","9.14687978615209","",""
"1101553","Konstanz, Carl-Benz-Strasse","47.6763263153114","9.14851471996942","",""
"1101554","Konstanz, Danziger Strasse","47.6816185010673","9.18088101966075","",""
"1101555","Konstanz, Döbele","47.6586374482673","9.16889749376893","",""
"1101556","Konstanz, Döbelestrasse","47.6595329248361","9.16663373925263","",""
"1101557","Konstanz, Ebertplatz","47.6705133647506","9.174880273562","",""
"1101558","Konstanz, Eichhornstrasse","47.6700717718046","9.1876633000568","",""
"1101559","Konstanz, Elberfeldstrasse","47.6801427912428","9.15974366102248","",""
"1101560","Konstanz, Ellenrieder Gymn.","47.6654862433981","9.17096361892269","",""
"1101563","Konstanz, Feursteinstrasse","47.6903207112303","9.13451896784089","",""
"1101564","Konstanz, Freibad Horn","47.6668716236055","9.21466665750119","",""
"1101565","Konstanz, Friedhof","47.6777779396884","9.17427840232155","",""
"1101566","Konstanz, Friedrichstrasse","47.675794042921","9.18405207261413","",""
"1101567","Konstanz, Fritz-Arnold-Strasse","47.6756912169471","9.14572095943542","",""
"1101568","Konstanz, Fürstenberg","47.6809048433316","9.1620343649973","",""
"1101570","Konstanz, Gabelsbergerstrasse","47.6882707729859","9.15730024344933","",""
"1101571","Konstanz, Gartenstrasse","47.6661154162595","9.16560965982859","",""
"1101572","Konstanz, Schneckenburgstrasse","47.6739370955922","9.17067615803173","",""
"1101573","Konstanz, Gottmannplatz","47.6731628439611","9.17012818570834","",""
"1101574","Konstanz, Gutenbergweg","47.6864807905158","9.16119893178295","",""
"1101577","Konstanz, Hallenbad","47.6689768471497","9.17630859486395","",""
"1101578","Konstanz, Hardtstr./Fürstenb.","47.6856039185784","9.15367104970098","",""
"1101579","Konstanz, Hardtstrasse","47.6831365032732","9.15172170553417","",""
"1101580","Konstanz, Hebelstrasse","47.668825612657","9.19273878141278","",""
"1101581","Konstanz, Herosestrasse","47.6834630796473","9.1573990581306","",""
"1101582","Konstanz, Hieronymusgasse","47.6602408244968","9.17152955755176","",""
"1101583","Konstanz, Jacob Burckhardt-Str","47.6821930489302","9.18377359487602","",""
"1101584","Konstanz, Jugendherberge","47.6848782203099","9.20045530970444","",""
"1101585","Konstanz, Karlsruher Strasse","47.6843883682713","9.14911659120986","",""
"1101586","Konstanz, Kliniken Schmieder","47.6660125712141","9.20424620020395","",""
"1101587","Konstanz, Klinikum Konstanz","47.6703318886497","9.18752855276416","",""
"1101588","Konstanz, Königsbau","47.6783283367051","9.18525581509502","",""
"1101589","Konstanz, Konzilstr./Theater","47.662727472865","9.177674034096","",""
"1101590","Konstanz, Laube/Niederburg","47.6653289489977","9.17407178980618","",""
"1101591","Konstanz, Line-Eid-Strasse","47.6729995237906","9.15504547208588","",""
"1101593","Konstanz, Lutherplatz","47.6617473482342","9.17099955153406","",""
"1101594","Konstanz, Markgrafenstrasse","47.6721889642696","9.1733351712731","",""
"1101595","Konstanz, Max-Stromeyer-Str. O","47.677632779068","9.15606955150992","",""
"1101596","Konstanz, Max-Stromeyer-Str. W","47.6789029208027","9.15214391371777","",""
"1101597","Konstanz, Neue Rheinbrücke","47.671983297911","9.1633459053123","",""
"1101598","Konstanz, Neuwerk","47.6744270457675","9.15968077895258","",""
"1101599","Konstanz, Opelstrasse","47.6770521325481","9.15413817364879","",""
"1101600","Konstanz, Pfeiferhölzle","47.682725256042","9.17592231929172","",""
"1101601","Konstanz, Reute-/Winkelstr.","47.6812435295759","9.15564734332632","",""
"1101602","Konstanz, Reute-/Freibürgleweg","47.6825922047731","9.15245832406725","",""
"1101604","Konstanz, Riedstrasse","47.6844548916576","9.14743674162833","",""
"1101605","Konstanz, Rosenau","47.66702286376","9.19882935903996","",""
"1101606","Konstanz, Rudolf-Diesel-Str.","47.6743363146007","9.15147916040743","",""
"1101607","Konstanz, Salzberg","47.6731567950751","9.19304420860942","",""
"1101608","Konstanz, Salzberg/Allm. Str.","47.6737435337614","9.19272979825994","",""
"1101610","Konstanz, Schnetztor","47.6583712225419","9.17163735538587","",""
"1101611","Konstanz, Schottenplatz","47.6657282338576","9.17397297512491","",""
"1101612","Konstanz, Schulthaissstrasse","47.6614871886059","9.16644509304294","",""
"1101613","Konstanz, Schwaketenbad","47.6878111887535","9.16045333009703","",""
"1101614","Konstanz, Schwaketenstrasse","47.6891778352447","9.15350036979698","",""
"1101615","Konstanz, Schweizer Bahnhof","47.6585466896498","9.17679368511744","",""
"1101616","Konstanz, Sonnenbühlstr./Tann.","47.6761267138013","9.19701476216578","",""
"1101617","Konstanz, Sonnenbühlstrasse","47.6787456668365","9.1917057188359","",""
"1101618","Konstanz, Staad/Autofähre","47.6822837664354","9.21116322789264","",""
"1101619","Konstanz, Stadtwerke","47.6756488767813","9.1624565731809","",""
"1101620","Konstanz, Stefansschule","47.6625399195754","9.17276923264402","",""
"1101621","Konstanz, Sternenpl./Span'str.","47.6674160861109","9.17891370918826","",""
"1101622","Konstanz, Sternenplatz","47.6672285496669","9.17936286683038","",""
"1101624","Konstanz, Stromeyersdorf","47.6730479150055","9.15806381144094","",""
"1101625","Konstanz, Taborweg","47.6793565353574","9.16906817367293","",""
"1101626","Konstanz, Tannenhof","47.674771822763","9.19738307143232","",""
"1101628","Konstanz, Universität","47.6898974267484","9.18768126636248","",""
"1101629","Konstanz, Universität West","47.68946204484","9.18629786082475","",""
"1101630","Konstanz, Urisberg","47.6901211632597","9.15128153104489","",""
"1101632","Konstanz-Wollmatingen, Bahnhof","47.6820358048809","9.14733792694706","",""
"1101633","Konstanz, Zähringerplatz","47.6727031266199","9.1836208812777","",""
"1101634","Konstanz, Gesch.-Scholl-Schule","47.6883372914208","9.16365133250894","",""
"1101636","Konstanz, Marktstätte/Bahnhof","47.6596297321939","9.17703623024418","",""
"1101637","Konstanz,Pfeiferhölzle Wendep.","47.68265873045","9.1736316153169","",""
"1101639","Konstanz, Rauhgasse","47.6800944066074","9.18593853471105","",""
"1101640","Konstanz,Staad Autofähre/Hotel","47.6818180815685","9.21119017735116","",""
"1101641","Krauchenwies, Bahnhof","48.0187816479434","9.23758268040227","",""
"1101642","Krauchenwies, Friedhof","48.0144371647909","9.25103944336025","",""
"1101643","Krauchenwies, Fürst-Fried.-Str","48.0152123483671","9.24930569486166","",""
"1101644","Krauchenwies, Hofschenke","48.0185953774774","9.2477695757256","",""
"1101645","Krauchenwies, Kindergarten","48.0158973846181","9.2531864168896","",""
"1101646","Krauchenwies, Rathaus","48.018511255111","9.25094062867899","",""
"1101647","Krauchenwies, Reitstall","48.0198331621442","9.24926077909745","",""
"1101648","Krauchenwies, Schule","48.0164622322244","9.25070706670508","",""
"1101649","Krauchenwies, Waldhorn","48.0178202447629","9.24546090544509","",""
"1101651","Langenrain (KN), Bürgerhaus","47.7630926489993","9.07594881130814","",""
"1101652","Langenrain (KN), Dorfplatz","47.7633704171493","9.07519422646938","",""
"1101655","Liggeringen, Dorfmitte","47.7750353401454","9.02732300497198","",""
"1101656","Liggeringen, Kunststoffa./L220","47.7723608503636","9.02066648871573","",""
"1101657","Liggersdorf, Abzw. Sattelöse","47.9038934778243","9.09499309533413","",""
"1101658","Liggersdorf, Grundschule","47.8836733677327","9.10991411220543","",""
"1101660","Liggersdorf, Im Tann","47.889781793585","9.10948292086899","",""
"1101661","Liggersdorf, Rother Strasse","47.8996477289676","9.10095790882151","",""
"1101663","Liptingen, Post","47.9373293706688","8.90862860646475","",""
"1101664","Liptingen, Rathaus","47.9384005993389","8.90860165700622","",""
"1101665","Liptingen, Stockacher Strasse","47.9399652754868","8.91290458721775","",""
"1101666","Liptingen, Waldhof","47.9368358758364","8.94193813720454","",""
"1101667","Litzelstetten, Tankstelle","47.712054774138","9.17321839028615","",""
"1101668","Litzelstetten, Waldfriedhof","47.7087242164156","9.17090073685279","",""
"1101669","Litzelstetten, Zum Purren","47.7152823710872","9.17201464780526","",""
"1101670","Ludwigshafen (KN), Bahnhof","47.8158721300157","9.0528710916559","",""
"1101674","Ludwigshafen (KN), Volksbank","47.8174163822468","9.05752436482829","",""
"1101675","Ludwigshafen (KN),Grund-/H.Sch","47.8188640770011","9.05481145266987","",""
"1101676","Ludwigshafen (KN),Kath. Kirche","47.8195517178684","9.05949167530078","",""
"1101677","Mahlspüren (Hg),Bäckerei Lette","47.8781667334022","8.97318154279056","",""
"1101678","Mahlspüren im Hegau","47.8756542123555","8.97739464147367","",""
"1101679","Mahlspüren im Tal","47.862631737858","9.09660107969293","",""
"1101681","Mainau","47.7011012134898","9.18384546009876","",""
"1101682","Mainwangen, Kirche","47.9253818616833","9.0104167113225","",""
"1101683","Mainwangen, Unterdorf","47.9236180913042","9.00981484008206","",""
"1101684","Marbach (Kr Konst.), Blanhof","47.6657463830969","8.94265678943193","",""
"1101685","Marbach (Kr Konst.), Schloss","47.6711545752532","8.9520890999165","",""
"1101687","Markelfingen, Kindswiese","47.7444123573651","9.00016693392927","",""
"1101688","Markelfingen, Landg. Wildpark","47.7428900983015","9.0437711578265","",""
"1101689","Markelfingen, Markolfstrasse","47.7443036260511","9.00738040566175","",""
"1101690","Markelfingen, Naturfreundehaus","47.7332299647149","9.01580660302797","",""
"1101691","Markelfingen, Oberdorfstrasse","47.7427088740192","9.00520648267388","",""
"1101692","Markelfingen, Radolfz.-Strasse","47.7423645461448","9.00346375102245","",""
"1101693","Mauenheim (Baden), Abzweig","47.8995513675056","8.75629230056256","",""
"1101694","Menningen (Baden), Leitishofen","48.0041784056181","9.15924958761614","",""
"1101695","Menningen (Baden), Zunftstube","48.0083134058325","9.15972569471679","",""
"1101696","Messkirch, Adlerplatz","47.9946209594549","9.11094717478231","",""
"1101698","Messkirch, Bahnhof","47.9949095120506","9.1155375658848","",""
"1101699","Messkirch, Conrad-Gröber-Haus","47.9939176057428","9.10658136250088","",""
"1101701","Messkirch, Friedhof","48.0000190303035","9.10907867899108","",""
"1101702","Messkirch, Gymnasium","47.9888976662632","9.10320369703212","",""
"1101704","Messkirch, Hauptschule","47.9958593196134","9.11490874518583","",""
"1101705","Messkirch, Hofgarten","47.9915790360104","9.10648254781962","",""
"1101707","Messkirch, Mengener Strasse","47.9926972342462","9.1164897800861","",""
"1101708","Mindersdorf, Adler","47.8969435173358","9.07563440095866","",""
"1101709","Mindersdorf, Haslen","47.9023337325389","9.08725860073678","",""
"1101710","Mindersdorf, Ratzenweiler","47.8886071522536","9.08074581492601","",""
"1101711","Mindersdorf, Schule","47.895269123967","9.07540083898475","",""
"1101712","Mindersdorf, Sportplatz","47.8993827345156","9.0790300327331","",""
"1101713","Mindersdorf, Tannenbergstrasse","47.8941307464768","9.07055891960268","",""
"1101714","Möggingen (Kr KN), Am Ried","47.7644814749174","9.00208034548471","",""
"1101715","Möggingen (Kr KN), Rathaus","47.7662385884876","9.002691199878","",""
"1101716","Moos (D), Bohlinger Strasse","47.7259851989901","8.93359278821391","",""
"1101717","Moos (D), Grüner Baum","47.7266438557002","8.93424855837141","",""
"1101718","Moos (D), Mooswaldstrasse","47.7231389811219","8.93458093502658","",""
"1101719","Mühlhausen (KN), Bachweg Abzw.","47.8125240817161","8.80948154854268","",""
"1101721","Mühlhausen (KN), Bf/Weidenstr.","47.8139658803311","8.80355266766666","",""
"1101722","Mühlhausen (KN), Hohenkrähen","47.8009098088766","8.82410612137018","",""
"1101723","Mühlhausen (KN), Im Rohmen","47.8077459524765","8.82054879284457","",""
"1101724","Mühlhausen (KN), Rathaus","47.8101592040072","8.80924798656877","",""
"1101726","Mühlhausen (KN), Schule","47.8110339799955","8.80651710810467","",""
"1101727","Mühlhausen (KN),Bahnhof/Brücke","47.8142614742653","8.80375928018204","",""
"1101728","Mühlingen, Bergstrasse","47.9114566725711","9.01933698209505","",""
"1101729","Mühlingen, Fallentorstrasse","47.9149247744079","9.01550117583133","",""
"1101730","Mühlingen, Grundschule","47.9112820571314","9.01533947908016","",""
"1101731","Mühlingen, Kriegerdenkmal","47.9129679746894","9.01694746343896","",""
"1101733","Mühlingen, Mühlweiler","47.9055435046897","9.02953286057123","",""
"1101734","Mühlingen, Rathaus","47.9100175829181","9.02133124202607","",""
"1101736","Sigmaringen, Bahnhof","48.0863593694512","9.22294014126908","",""
"1101737","Münchhöf","47.8809743465811","8.95225977982051","",""
"1101738","Nenzingen, Bahnhof","47.8415333288605","8.96476432857719","",""
"1101739","Nenzingen, Schule","47.8425281609403","8.96436008669928","",""
"1101740","Nenzingen, Rathaus","47.842413605491","8.95938342002457","",""
"1101741","Nenzingen, Zollbruck","47.8427210958622","8.97253475578591","",""
"1101743","Neuhausen (Hg), Lindenstrasse","47.8380482514673","8.77393521274512","",""
"1101744","Öhningen, Endorf/Höristrasse","47.6595026725","8.89134502039588","",""
"1101745","Öhningen (See)","47.6520963732232","8.89456997226632","",""
"1101746","Öhningen, Linde","47.6616565950227","8.88719480378268","",""
"1101747","Öhningen, Grenze","47.6603618320252","8.87654078451153","",""
"1101748","Öhningen, Im Ziehler","47.6583833237407","8.89969935253936","",""
"1101750","Öhningen, Staldenstrasse","47.6604525874874","8.88427527910888","",""
"1101751","Orsingen, Camping Resort","47.8393024239303","8.93730283033784","",""
"1101753","Orsingen, Rathaus","47.836088546299","8.93118530325213","",""
"1101754","Orsingen, Schule","47.8371256917933","8.93376346811791","",""
"1101758","Orsingen, Torkelplatz","47.8364262238523","8.93159852828288","",""
"1101759","Orsingen, Wahlwieser Strasse","47.8342734917987","8.93537145247671","",""
"1101766","Owingen, Friedhof","47.8099178839001","9.18035999679589","",""
"1101770","Owingen, Hedertsweiler","47.8288158857125","9.17412568872323","",""
"1101779","Gottmadingen, Petersburg","47.7293086111345","8.75654382884214","",""
"1101780","Pfullendorf, ZOB","47.9242862844285","9.25035672374423","",""
"1101781","Radolfzell, Allweiler","47.7417967022191","8.96623756564335","",""
"1101783","Radolfzell, B 34 Ost","47.7517934743682","8.97686463545597","",""
"1101784","Radolfzell, B 34 West","47.7516968380281","8.97685565230312","",""
"1101787","Radolfzell, Berufsschule","47.7467741870796","8.96756707226404","",""
"1101788","Radolfzell, BEZ","47.7443700729922","8.95831442483632","",""
"1101790","Radolfzell, Bismarckstrasse","47.7404737226645","8.96520450306647","",""
"1101791","Radolfzell, Bleichwiesenstr.","47.7425578533021","8.96356956924915","",""
"1101792","Radolfzell, Böhringer Strasse","47.7416879654416","8.96369533338894","",""
"1101793","Radolfzell, Buchhofsteig","47.7485560592858","8.98289233101325","",""
"1101794","Radolfzell, Buchhofsteig Nord","47.7503559902902","8.98178740321363","",""
"1101796","Radolfzell, Dörfle II","47.7507304647569","8.96448585083908","",""
"1101797","Radolfzell, Eisenbahnstrasse","47.7407697347082","8.95729034541228","",""
"1101798","Radolfzell, Ekkehardstrasse","47.7475352653835","8.96948048381948","",""
"1101799","Radolfzell, Feuerwehrhaus","47.7473600975535","8.95448760172544","",""
"1101800","Radolfzell, Forsteibrunnen","47.7376222551536","8.96685740318948","",""
"1101801","Radolfzell, Friedhofstrasse","47.7452882402216","8.96308447899566","",""
"1101802","Radolfzell, Fürstenbergstrasse","47.7382445166819","8.97228322750632","",""
"1101804","Radolfzell, Gymnasium","47.745560062939","8.97981110958829","",""
"1101805","Radolfzell (Bodensee)","47.7351029261676","8.96932777022116","",""
"1101808","Radolfzell, Hebelstrasse","47.7437116404684","8.97927212041774","",""
"1101809","Radolfzell, Hochhäuser","47.7466292185218","8.95806289655673","",""
"1101810","Radolfzell, Hegaustrasse","47.7472996947167","8.95641897958656","",""
"1101811","Radolfzell, H.-Sernatinger-Str","47.7355983434142","8.98357505062927","",""
"1101813","Radolfzell, Herzenstrasse","47.7384801283292","8.96272515288196","",""
"1101814","Radolfzell, Hohentwielstrasse","47.7485318987147","8.95627524914108","",""
"1101815","Radolfzell, Höllturm","47.7386613673323","8.97101660295553","",""
"1101816","Radolfzell, Höristrasse","47.7489365868012","8.96280600125754","",""
"1101817","Radolfzell, Kapellenweg","47.7505190682118","8.98018840200767","",""
"1101818","Radolfzell, Kapellenweg Ost","47.748519818425","8.98214672932733","",""
"1101819","Radolfzell, Karl-Bücheler-Str.","47.7534845812728","8.97817617577096","",""
"1101820","Radolfzell, Kasernenstr./Höri.","47.7474084197724","8.96078479186799","",""
"1101822","Radolfzell, Kasernenstr./RIZ","47.7498667534596","8.95615846815413","",""
"1101823","Radolfzell, Kasernenstrasse","47.7488943061036","8.95811679547378","",""
"1101824","Radolfzell, Konstanzer Strasse","47.744418397987","8.98131129611298","",""
"1101825","Radolfzell, Krankenhaus","47.7363414604463","8.97930805302911","",""
"1101826","Radolfzell, Lärchenweg","47.7488822258979","8.9840242082714","",""
"1101827","Radolfzell, Leichtath. Stadion","47.7446419005044","8.97840075459203","",""
"1101828","Radolfzell, Libellenweg","47.7421047885219","8.97829295675792","",""
"1101829","Radolfzell, Luisenplatz","47.7374712196805","8.97264255362002","",""
"1101832","Radolfzell, Meinradsplatz","47.7451070242881","8.96741435866571","",""
"1101834","Radolfzell, Mettnau Stadion","47.7365106238172","8.98334148865537","",""
"1101835","Radolfzell, Mettnau Strandbad","47.7289521098039","8.99360024920144","",""
"1101836","Radolfzell, Mettnauschule","47.7345893789243","8.98247012282965","",""
"1101838","Radolfzell, Millennium","47.7469010342364","8.97292103135813","",""
"1101839","Radolfzell, Mögginger Steig","47.7497701135417","8.98672813727697","",""
"1101840","Radolfzell, Neuer Wall","47.7490332282669","8.97093575457995","",""
"1101841","Radolfzell, Nordendstrasse","47.7520652631128","8.96639926239452","",""
"1101842","Radolfzell, Obertor","47.7369456128188","8.97217542967221","",""
"1101845","Radolfzell, Polizei","47.738776151708","8.97448409995272","",""
"1101846","Radolfzell, Pro Seniore","47.740165626709","8.96466551389593","",""
"1101848","Radolfzell, Reutesteig","47.7510626575929","8.96767487009815","",""
"1101849","Radolfzell, Riedweg","47.745481536522","8.98284741524904","",""
"1101851","Radolfzell, Schafweide","47.7527839865085","8.96847437070112","",""
"1101852","Radolfzell, Schiesser","47.7406912010647","8.96973201209907","",""
"1101853","Radolfzell, Schlesier Strasse","47.7505130282979","8.97240000849327","",""
"1101854","Radolfzell, Schützenstrasse","47.7425880574806","8.97075609152311","",""
"1101855","Radolfzell, Schwertstrasse","47.7428478126921","8.96662384121558","",""
"1101856","Radolfzell, Seehalde","47.73551980197","8.97726887733388","",""
"1101857","Radolfzell, Seerose","47.7398877346754","8.95985952712522","",""
"1101858","Radolfzell, Siedlerbrunnen","47.7521256604188","8.97575970765635","",""
"1101859","Radolfzell, Sonnenrain","47.7513404899729","8.97125016492944","",""
"1101860","Radolfzell, Sonnenrainschule","47.7523551695425","8.97101660295553","",""
"1101862","Radolfzell, Stockacher Strasse","47.7505432278604","8.97460986409251","",""
"1101863","Radolfzell, Strandbadstrasse","47.735078759352","8.98682695195824","",""
"1101864","Radolfzell, Stürzkreut","47.7477768752163","8.98375471368612","",""
"1101865","Radolfzell, Stürzkreut/Höhenw.","47.7506096668363","8.9823533418427","",""
"1101866","Radolfzell, SÜDKURIER","47.7389936371995","8.96877979789777","",""
"1101867","Radolfzell, TRW Zeppelinstr.","47.7387519865973","8.94957381712062","",""
"1101869","Radolfzell, Untertorstrasse","47.7393077813056","8.96568959331996","",""
"1101870","Radolfzell, Villa Bosch","47.7363958344469","8.97458291463399","",""
"1101871","Radolfzell, Waldfriedhof","47.755254145013","8.97810431054822","",""
"1101872","Radolfzell, Waldhaus","47.7443881948705","8.97168135626588","",""
"1101873","Radolfzell, Walter-Schell.-Str","47.7528685415495","8.95544879907958","",""
"1101874","Radolfzell, Weinburg","47.7473359364272","8.98418590502256","",""
"1101875","Radolfzell, W.-Messmer-Klinik","47.7334474733733","8.98854273415115","",""
"1101877","Radolfzell, ZOB","47.7360212568467","8.97025303496393","",""
"1101878","Radolfzell, Zur Schmiede","47.73703623507","8.96605790258651","",""
"1101881","Radolfzell, Ecke Böhringerstr.","47.7427813638079","8.96319227682976","",""
"1101882","Radolfzell, Ecke Hegaustrasse","47.7459104101253","8.96012003855765","",""
"1101883","Radolfzell, F.-A.-Messmer-Str.","47.7421893609135","8.95851205419885","",""
"1101884","Radolfzell,Milchwerk/Hadwigstr","47.7412590570489","8.97259763785581","",""
"1101885","Raithaslach, Farrenstall","47.8805526118233","8.96002122387638","",""
"1101886","Raithaslach, Hatzenlochhof","47.8867517670574","8.95184655478976","",""
"1101887","Raithaslach, Ortsmitte","47.8808960246714","8.96373126600031","",""
"1101888","Randegg (Hegau), Oberdorf","47.7196761751778","8.74895306469028","",""
"1101889","Randegg (Hegau), Ortsmitte","47.7220270406021","8.75244751114599","",""
"1101890","Randegg (Hegau), Ottilienstr.","47.7226011432906","8.75518737276293","",""
"1101892","Reichenau (Baden), Bahnhof","47.6896192665039","9.12566157913824","",""
"1101893","Reichenau (Bd), Camping","47.700659879422","9.04636728899797","",""
"1101894","Reichenau (See)","47.689740205923","9.05422754773511","",""
"1101895","Reichenau (Bd), Museum","47.6968207200013","9.06258187987858","",""
"1101896","Reichenau (Bd), Bruckgraben","47.6872427500221","9.09237001470413","",""
"1101897","Reichenau (Bd), Kreuz","47.6886275526898","9.08127582094371","",""
"1101899","Reichenau (Bd), ZfP Reichenau","47.6922617289275","9.12831160922676","",""
"1101900","Reichenau (Bd), Bradlen","47.6946742950779","9.04743628418622","",""
"1101901","Reichenau (Bd), Hasenhof","47.688754541487","9.06550140455238","",""
"1101902","Reichenau (Bd), Königsegg","47.6929329051533","9.059707270969","",""
"1101903","Reichenau (Bd), Rheinstrasse","47.6862812278533","9.07345149481794","",""
"1101904","Reichenau (Bd), Stedigasse","47.6930236039807","9.05544027336884","",""
"1101905","Reute (Kr KN), Alemannenstr.","47.8883360773937","8.90722723462133","",""
"1101906","Reute (Kr KN), Ziegelhütte","47.8904865655958","8.91674039348148","",""
"1101907","Riedheim, Bergstrasse","47.7651637975455","8.74745287816559","",""
"1101908","Riedheim, Freiheitstrasse","47.7613414678167","8.7494651044023","",""
"1101909","Riedheim, Hofstedtstrasse","47.7651154918131","8.74747084447127","",""
"1101910","Riedheim, Siedlerhöfe","47.7688590530911","8.72840859413961","",""
"1101911","Riedheim, Turmstrasse","47.76448751321","8.75103715614972","",""
"1101913","Rielasingen, Kirche","47.7320396929127","8.83731135604857","",""
"1101914","Rielasingen, Hegaustrasse","47.7284566293257","8.84573755341479","",""
"1101915","Rielasingen, Mühle","47.7363958344469","8.84015003234679","",""
"1101916","Rielasingen, Ramsener Str.","47.7268855624956","8.83404148841392","",""
"1101917","Rielasingen, Schnaidholz","47.7392594515665","8.84112021285377","",""
"1101918","Rielasingen, Talwiesenhallen","47.7270668418561","8.83882950887895","",""
"1101919","Rielasingen, Ten-Brink-Schule","47.7302391285338","8.84121902753504","",""
"1101921","Rielasingen, Gewerbegebiet","47.7347706314708","8.84850436449026","",""
"1101922","Rielasingen, Zoll","47.7183526335748","8.8269897134326","",""
"1101923","Rielasingen, Zeppelinstrasse","47.7288856431842","8.84629450889102","",""
"1101924","Rorgenwies, Gemeindehaus","47.9037369031996","8.91992941274055","",""
"1101925","Rorgenwies, Hochbuchhof","47.9011473311045","8.9216541780863","",""
"1101926","Rorgenwies, Tälehof","47.8984913795865","8.92102535738733","",""
"1101927","Rothenlachen","47.9155208310032","9.17467366104662","",""
"1101930","Salem, Rickenbach","47.7947909086366","9.25965428693616","",""
"1101935","Schienen, Schienerbergstrasse","47.6875209229413","8.90022037540422","",""
"1101936","Schienen, Schrotzburg Abzw.","47.6984652449473","8.90891606735571","",""
"1101937","Hilzingen, Abzw. Bundesstrasse","47.7823517514385","8.71526624153111","",""
"1101938","Hilzingen, Bahnholzstrasse","47.7705556429393","8.70197117532429","",""
"1101939","Schlatt (Krähen), Dorfstrasse","47.8038000446751","8.83393369057981","",""
"1101940","Schlatt (Krähen), Hintergass","47.8050128097136","8.8356674390784","",""
"1101941","Schlatt (Krähen), Im Brand","47.8065573848855","8.84115614546514","",""
"1101942","Schlatt (Krähen), Rathaus","47.8052360519333","8.83739220442416","",""
"1101945","Seelfingen, Adler","47.8506187532652","9.10973444914858","",""
"1101946","Seelfingen, Neumühle","47.8561042044141","9.10221555021945","",""
"1101949","Sentenhart, Auerbachstrasse","47.9131486054557","9.12755702438799","",""
"1101950","Sigmaringen, Hedingen","48.0822846420589","9.22332641684131","",""
"1101951","Sigmaringen, Hohenzollerngymn.","48.0916818334123","9.22081113404542","",""
"1101952","Sigmaringen, Josefslust","48.0554457915639","9.23157295115067","",""
"1101953","Sigmaringen, Staatsarchiv","48.0863053619207","9.21923009914515","",""
"1101954","Singen (Htw), A.-Bruckner-Str.","47.7670114581345","8.83440081452762","",""
"1101957","Singen (Htw), Alusingenplatz","47.7619694843996","8.85296899145296","",""
"1101958","Singen (Htw), Am Heidenbühl","47.742207483551","8.84257548361425","",""
"1101959","Singen (Htw), Am Posthaltersw.","47.7731034425846","8.84258446676709","",""
"1101960","Singen (Htw), Bahnhof/ZOB","47.7590346495325","8.84014104919394","",""
"1101961","Singen (Htw), Bahnhof/KARSTADT","47.7592882837727","8.84070698782302","",""
"1101963","Singen (Htw), Beethovenstr.","47.7713948608739","8.83243350405513","",""
"1101964","Singen (Htw), Berliner Platz","47.7442975854159","8.85030099505875","",""
"1101965","Singen (Htw), Berufsschulen","47.7692696208351","8.8333587687979","",""
"1101966","Singen (Htw), Industriegebiet","47.7593064004569","8.87271396140065","",""
"1101967","Singen (Htw), Blauenstrasse","47.7773655960731","8.85723598905312","",""
"1101968","Singen (Htw), Bohlinger Str.","47.7500962725454","8.85158558591522","",""
"1101969","Singen (Htw), Breslauer Str.","47.7461580679206","8.86099094694126","",""
"1101970","Singen (Htw), Bruderhofstrasse","47.7750474142795","8.84133580852199","",""
"1101971","Singen (Htw), Carl-Benz-Str.","47.7563412191774","8.87072868462247","",""
"1101972","Singen (Htw), Danziger Strasse","47.7462063912555","8.85696649446784","",""
"1101973","Singen (Htw), Eisvogel","47.7499996330537","8.85525071227494","",""
"1101974","Singen (Htw), Ekkehardschule","47.7618487125686","8.83691609732351","",""
"1101975","Singen (Htw), Ekkehardstrasse","47.7618004037577","8.83831746916693","",""
"1101976","Singen (Htw), EKZ","47.7605262426751","8.89191095902496","",""
"1101977","Singen (Htw), Erzbergerstrasse","47.7602001490415","8.83814678926292","",""
"1101978","Singen (Htw), F.-Ebert-Platz","47.750700265303","8.84255751730856","",""
"1101979","Singen (Htw), Feldbergstrasse","47.7766532491262","8.8532115365797","",""
"1101980","Singen (Htw), Feldstrasse","47.7460432998205","8.84517161478571","",""
"1101981","Singen (Htw), Fichtestrasse","47.7752949334098","8.84474042344928","",""
"1101982","Singen (Htw), Freiburger Str.","47.7505190682118","8.85808938857315","",""
"1101983","Singen (Htw), Freiheitstrasse","47.7635998766762","8.8426293825313","",""
"1101984","Singen (Htw), Friedhof","47.7526752726825","8.82147405758734","",""
"1101985","Singen (Htw), Friedhof B34","47.7505855072185","8.81684773387348","",""
"1101986","Singen (Htw), G.-Daimler-Str.","47.7583401684993","8.88339493013032","",""
"1101987","Singen (Htw), G.-Fischer-Str.","47.7531161662364","8.85091184945204","",""
"1101989","Singen (Htw), Grubwaldstr.","47.7559607458033","8.86455725861971","",""
"1101990","Singen (Htw), Güterstrasse","47.7573195665074","8.85319357027402","",""
"1101991","Singen (Htw), H.-Weber-Platz","47.7628933796301","8.83832645231977","",""
"1101992","Singen (Htw), Hauptstrasse","47.757506779023","8.83618846194327","",""
"1101993","Singen (Htw), Hegau-Klinikum","47.7589802991773","8.82424086866282","",""
"1101994","Singen (Htw), Hohenhewenstr.","47.7733328591755","8.83931459913244","",""
"1101995","Singen (Htw), Hohenkrähenstr.","47.7690582996069","8.82624411174668","",""
"1101996","Singen (Htw), Hohentwiel Str.","47.7606590950509","8.82519308286411","",""
"1101997","Singen (Htw), Höristrasse","47.7629899951772","8.8425665004614","",""
"1101998","Singen (Htw), Im Haselbusch","47.7568907869173","8.86002974958712","",""
"1101999","Singen (Htw), Im Iben","47.7750413772128","8.83765271585659","",""
"1102000","Singen (Htw), Industriestrasse","47.7520713028466","8.8517293163607","",""
"1102001","Singen (Htw), Infozentrum","47.7673193951851","8.81876114542892","",""
"1102002","Singen (Htw), Jugendherberge","47.7670718380921","8.84901640420228","",""
"1102003","Singen (Htw), Kniebisstrasse","47.7749025244857","8.85094778206341","",""
"1102004","Singen (Htw), Konstanzer Str.","47.751992786253","8.86038907570082","",""
"1102005","Singen (Htw), Kreuzensteinstr.","47.7623861450643","8.84562077242784","",""
"1102006","Singen (Htw), Laubwaldstrasse","47.7569511786227","8.85724497220596","",""
"1102007","Singen (Htw), Liebfrauenkirche","47.7685088603953","8.83808390719302","",""
"1102008","Singen (Htw), Lörracher Str.","47.751992786253","8.86222163888068","",""
"1102009","Singen (Htw), Markuskirche","47.7491540298466","8.84288091081089","",""
"1102010","Singen (Htw), Masurenstrasse","47.7460130976469","8.85378645836162","",""
"1102011","Singen (Htw), Max-Porzig-Str.","47.7769671659326","8.84000630190131","",""
"1102013","Singen (Htw), Oberdorfstr.","47.7647773504304","8.83535302872892","",""
"1102015","Singen (Htw), Offenburger Str.","47.7504707488809","8.86234740302047","",""
"1102018","Singen (Htw), Praxedisplatz","47.761740017681","8.84698621165989","",""
"1102019","Singen (Htw), Radrennbahn","47.7491661099891","8.85451409374186","",""
"1102020","Singen (Htw), Rathaus-FWH","47.7623257596675","8.83443674713899","",""
"1102021","Singen (Htw), Rebsteig","47.765888378148","8.8294870299228","",""
